id,Project Name,Subtype,Current Status,Capacity (MW),Year of Completion,Country list of Sponsor/Developer,Sponsor/Developer Company,Country list of Lender/Financier,Lender/Financier Company,Country list of Construction/EPC,Construction Company/EPC Participant,Country,Province/State,District,Tributary,Latitude,Longitude,Proximity,Avg. Annual Output (MWh),Data Source,Announcement/More Information,Link,Latest Update
1,300 MW Attapeu & Borikhamxay,Solar,Planned,250.0,2019.0,,,,,,,Laos,Vientiane [prefecture],Chanthabuly,Mekong Mainstream - Lower,17.99989,102.626,"Actual location unknown, currently sited at locality in link/announcement",,IUCN,Extracted from IUCN; http://annx.asianews.network/content/laos-attapeu-borikhamxay-anticipate-sun-shining-solar-project-55201; http://kpl.gov.la/En/Detail.aspx?id=27627; http://www.convalt.com/loa-solar-hte.html; http://www.investlaos.gov.la/index.php/ne,,
2,300 MW Attapeu & Borikhamxay,Solar,Planned,50.0,2019.0,USA,Convalt Energy LLC (USA),,,,,Laos,Attapu,Samakkhixay,Sekong,14.81831,106.8238,"Actual location unknown, currently sited at locality in link/announcement",,IUCN,Extracted from IUCN; http://annx.asianews.network/content/laos-attapeu-borikhamxay-anticipate-sun-shining-solar-project-55201; http://kpl.gov.la/En/Detail.aspx?id=27627; http://www.convalt.com/loa-solar-hte.html; http://www.investlaos.gov.la/index.php/ne,,
3,A Luoi,Hydro,Operational,170.0,2012.0,Vietnam,Central Region Hydropower JSC,,,Vietnam,VINAINCON,Vietnam,Thừa Thiên Huế,A Lưới,Sekong,16.19762,107.1619,,,Vietnam Electricity,https://en.evn.com.vn/userfile/User/huongbtt/files/2018/1/Quyetinh95CUCDTDL2017.pdf; https://data.mendeley.com/datasets/ht9k5p3vdb/1,https://wle-mekong.cgiar.org/construction-of-nam-chien-Hydropower-project-begins/,03/31/2021
4,A Vuong,Hydro,Operational,210.0,2008.0,Vietnam,A Vuong Hydro Power JSC,,,Japan; Vietnam,"Sumitomo, Licogi",Vietnam,Quảng Nam,Đông Giang,Song Giang,15.7998,107.6171,,,Wikipedia,https://www.licogi166.vn/en/cong-trinh-thuy-dien-a-vuong-a62.html; https://data.mendeley.com/datasets/ht9k5p3vdb/1,,03/31/2021
5,A.T. Biopower Rice Husk Power Project,Biomass,Operational,22.5,2004.0,Thailand,A.T. Biopower,,,,,Thailand,Phichit,Bang Mun Nak,Nan,16.07127,100.3964,,,UNFCCC,Rice husk,https://cdm.unfccc.int/Projects/DB/DNV-CUK1174909241.2/view,
6,Active Synergy Landfill Gas Power Generation Project,Waste,Unknown,1.04,,Thailand,"Active Synergy Co., Ltd.",,,United Kingdom,EDF Trading Ltd (EDFT),Thailand,Nakhon Pathom,Kamphaeng Saen,Tha Chin,14.06782,99.96933,,,UNFCCC,Landfill gas collection,https://cdm.unfccc.int/Projects/DB/TUEV-RHEIN1271901107.75/view,
7,Advanced Wastewater Management at Rajburi Ethanol Plant,Waste,Unknown,,,Thailand,Rajburi Ethanol Co.,,,Sweden,Carbon Asset Management Sweden AB,Thailand,Ratchaburi,Ban Pong,Nam Mae Khlong Mainstem,13.83763,99.85872,,,UNFCCC,Biogas from wastewater from ethanol,https://cdm.unfccc.int/Projects/DB/TUEV-SUED1337330382.67/view,
8,Agricultural cooperative solar project,Solar,Under Construction,5.0,2018.0,China,ReneSola Ltd (China),,,China,ReneSola Ltd (China),Thailand,Rayong,Muang Rayong,Coastal Rivers Rayong Chon Buri,12.70059,101.133,"Actual location unknown, currently sited at locality in link/announcement",,Renewables Now,https://www.prnewswire.com/news-releases/renesola-awarded-5mw-of-solar-projects-in-thailand-300483314.html,https://renewablesnow.com/news/renesola-wins-5-mw-of-agricultural-pv-projects-in-thailand-575003/;,
9,Ahlone,Gas,Operational,153.0,1995.0,Myanmar,MEPE (Myanmar),,,,,Myanmar,Yangon,Yangon-E,Irrawaddy Mainstem and Delta,16.78059,96.11212,,,Myanmar Institute for Peace and Security,https://www.industryabout.com/country-territories-3/1986-myanmar/fossil-fuels-energy/30614-ahlone-gas-power-plant,,
10,Ahlone,Gas,Planned,388.0,,Thailand; Japan; Myanmar,"TTCL Myanmar Power Co., Ltd (Thailand, Japan, Myanmar)",,,Thailand,"Toyo-Thai [Italian-Thai Development (Thailand), Toyo Engineering (Japan)]",Myanmar,Yangon,Yangon-W,Irrawaddy Mainstem and Delta,16.77856,96.13066,"Actual location unknown, currently sited at locality in link/announcement",,Myanmar Institute for Peace and Security,http://www.vdb-loi.com/wp-content/uploads/2018/01/Myanmar-Somewhat-Unexpectedly-Signs-4-Major-LNGGas-to-Power-Projects.pdf; https://www.ccifrance-myanmar.org/en/news/ceremony-held-for-lng-projects; https://frontiermyanmar.net/en/thai-firm-sees-progress-o,,
11,Ahlone,Gas,Operational,120.0,2013.0,Thailand; Japan; Myanmar,"Toyo Thai Power Myanmar Co., Ltd (Thailand, Japan, Myanmar)",,,,,Myanmar,Yangon,Yangon-W,Irrawaddy Mainstem and Delta,16.77856,96.13066,"Actual location unknown, currently sited at locality in link/announcement",,Myanmar Institute for Peace and Security,"http://www.moee.gov.mm/en/ignite/page/288, http://www.ttcl.com/news/daily/view/3; https://energypedia.info/images/4/4c/MOEP_-_Public-private_partnership_development_in_Thermal_Power_Generation%2C_Thermal_Power_Department%2C_Myanmar_Electric_Power_Enterpr",,
12,AJ Technology Company Limited (AJ),Solar,Operational,3.7,2013.0,Thailand,"AJ Technology Co. Ltd. (Solar Power Asset Co., Ltd., Dr. Art-ong Jumsai No Ayudhya, Mr. Krit Jumsai Na Adhya, Solar Power Co., Ltd.)",,,,,Thailand,Lop Buri,Chai Badan,Pasak,15.10425,101.0768,,,SPC company website,https://www.spcg.co.th/en/getSubsibiaries/35,,
13,Ajinomoto Waste Water Treatment and Biogas Utilization Project,Biomass,Operational,4.0,2008.0,Japan,"Ajinomoto Co., Ltd.",,,,,Thailand,Kamphaeng Phet,Mueang Kamphaeng Phet,Chao Phraya-Ping,16.33837,99.67564,,,UNFCCC,https://www.ajinomoto.co.jp/company/en/activity/sustainability/ricehusk/,https://cdm.unfccc.int/Projects/DB/KBS_Cert1348557030.37/view,
14,Akekamai-Ramintra Solar Power Plant,Solar,Operational,1.0,,Thailand,Thai Solar Energy Public Company Limited (TSE),,,,,Thailand,Bangkok Metropolis,Khan Na Yao,Chao Phraya-Ping,13.8283,100.6798,,1333.654,World Resources Institute,http://www.thaisolarenergy.com/project.php?menu=future_projects,,
15,Amata,Oil,Operational,13.0,,,,,,,,Vietnam,Đồng Nai,Biên Hòa,Dong Nai,10.9471,106.9,,,World Resources Institute,http://www.evn.com.vn/userfile/files/2017/3/AnnualReport2016.pdf,,
16,Amata B.Grimm,Gas,Operational,732.0,2016.0,Thailand,B. Grimm Power,,,Japan; Germany; Finland; France,"Siemens, Sumitomo Corporation, Toshiba Plant Systems, Alstom Power, Pöyry Energy",Thailand,Chon Buri,Muang Chon Buri,Chao Phraya-Ping,13.4191,101.0272,,3000949,World Resources Institute,http://www.bgrimmpower.com/power-plants/power-plants-in-operation/; https://investor.bgrimmpower.com/misc/ar/20180326-bgrim-ar2017-en.pdf; https://investor.bgrimmpower.com/misc/presentation/20190521-bgrim-oppday-1q2019-02.pdf,_x0008_,12/28/2020
17,Amata B.Grimm Power (Rayong) 1,Gas,Operational,123.3,2013.0,Thailand,B.Grimm,,,,,Thailand,Rayong,Pluak Daeng,Coastal Rivers Rayong Chon Buri,12.9679627971364,101.11812949807,,,Sponsor Website,,https://investor.bgrimmpower.com/misc/presentation/20190521-bgrim-oppday-1q2019-02.pdf,12/28/2020
18,Amata B.Grimm Power (Rayong) 2,Gas,Operational,124.4,2013.0,Thailand,B.Grimm,,,,,Thailand,Rayong,Pluak Daeng,Coastal Rivers Rayong Chon Buri,12.967963,101.118129,,,Sponsor Website,,https://investor.bgrimmpower.com/misc/presentation/20190521-bgrim-oppday-1q2019-02.pdf,12/28/2020
19,Amata B.Grimm Power (Rayong) 3,Gas,Operational,133.0,2018.0,Thailand,B.Grimm,,,,,Thailand,Rayong,Pluak Daeng,Coastal Rivers Rayong Chon Buri,12.9352080150761,101.098225808375,_x0008_,,Sponsor Website,,https://investor.bgrimmpower.com/misc/presentation/20190521-bgrim-oppday-1q2019-02.pdf,12/28/2020
20,Amata B.Grimm Power (Rayong) 4,Gas,Operational,133.0,2018.0,Thailand,B.Grimm,,,,,Thailand,Rayong,Pluak Daeng,Coastal Rivers Rayong Chon Buri,12.9351139058471,101.097077822971,_x0008_,,Sponsor Website,,https://investor.bgrimmpower.com/misc/presentation/20190521-bgrim-oppday-1q2019-02.pdf,12/28/2020
21,Amata B.Grimm Power (Rayong) 5,Gas,Operational,133.0,2018.0,Thailand,B.Grimm,,,,,Thailand,Rayong,Pluak Daeng,Coastal Rivers Rayong Chon Buri,12.9821450513877,101.106913889459,_x0008_,,Sponsor Website,,https://investor.bgrimmpower.com/misc/presentation/20190521-bgrim-oppday-1q2019-02.pdf,12/28/2020
22,An Khanh - Bac Giang (Nhà máy Nhiệt điện An Khánh - Bắc Giang),Coal,Planned,650.0,2023.0,Vietnam,An Khanh - Bac Giang Thermal Power JSC,China,China Development Bank (CDB); Industrial and Commercial Bank of China (ICBC),,,Vietnam,Bắc Giang,Lục Nam,Song Cau-Song Thuong-Song Luc Nam,21.23212,106.3596,"Actual location unknown, currently sited at locality in link/announcement",5000000,Sponsor Website,http://danviet.vn/doanh-nghiep/nhiet-dien-an-khanh-bac-giang-gop-phan-on-dinh-an-ninh-nang-luong-quoc-gia-975071.html,,
23,An Khanh I (Nhà máy nhiệt điện An Khánh I),Coal,Operational,120.0,2015.0,Vietnam,An Khanh Electricity JSC,China; Vietnam,"China Communications Bank; Bank of China, China Construction Bank, China Exim Bank, Bank for Investment and Development of Vietnam",China,China People Electricity and Gas Group,Vietnam,Thái Nguyên,Đại Từ,Song Cau-Song Thuong-Song Luc Nam,21.59691,105.7666,,800000,AidData,https://vietnamnews.vn/economy/219017/an-khanh-signs-143m-loan-deal.html; https://www.sourcewatch.org/index.php/An_Khanh_power_station; corroborated by other database; https://www.gem.wiki/An_Khanh_power_station,http://nhietdienankhanh.com.vn/gioi-thieu/gioi-thieu/2.html,03/29/2021
24,An Khanh II (Nhà máy nhiệt điện An Khánh II),Coal,Cancelled,300.0,2023.0,Vietnam,An Khanh Electricity JSC,,,,,Vietnam,Thái Nguyên,Đại Từ,Song Cau-Song Thuong-Song Luc Nam,21.59691,105.7666,,,Sourcewatch,http://baothainguyen.org.vn/tin-tuc/cong-nghiep/nhiet-dien-an-khanh-khang-dinh-vi-the-o-%E2%80%9Csan-choi%E2%80%9D-chung-256929-46245.html; https://www.gem.wiki/An_Khanh_power_station,,03/29/2021
25,An Khe - Kanak (Thủy điện An Khê - Kanak),Hydro,Operational,173.0,2011.0,Vietnam,An Khe - Ka Nak Hydro Power Co.,,,,,Vietnam,Gia Lai,KBang,Song Da Rang-Song Ba,14.17611,108.5772,,694000,Open Development Vietnam,https://data.opendevelopmentmekong.net/vi/library_record/an-khe-kanak-Hydropower,https://vi.wikipedia.org/wiki/Th%E1%BB%A7y_%C4%91i%E1%BB%87n_An_Kh%C3%AA_-_Kanak,
26,An Khe Biomass Power #1 Expansion (Nhà máy điện sinh khối An Khê),Biomass,Operational,95.0,2017.0,Vietnam,Quang Ngai Sugar Cane JSC,Vietnam,Quang Ngai Sugar Cane JSC,,,Vietnam,Gia Lai,An Khê,Song Da Rang-Song Ba,13.98589,108.6611,,,National Power Development Plan VII,"http://vneec.gov.vn/tin-tuc/energy-database/t23093/an-khe-biomass-power-plant-in-master-planning.html
http://qns.com.vn/language/en-US/%C4%90V-Th%C3%A0nh-vi%C3%AAn.aspx",,
27,Ang Thong Solar Power Plant,Solar,Operational,1.2,,Thailand,"Bangkok Solar Power Company, Ltd.",,,,,Thailand,Ang Thong,Muang Ang Thong,Chao Phraya-Ping,14.5894,100.4761,,1600.385,World Resources Institute,http://www.bangkoksolarpower.com/en/reference_project,,
28,Angkor Biomass,Biomass,Operational,2.0,2011.0,Cambodia,"Angkor Bio Cogen Co., Ltd.",Japan; Sweden,Mitsubishi UFJ Morgan Stanley Securities Co Ltd (Japan);  ADB as Trustee of the Future Carbon Fund; Swedish Energy Agency (Sweden),,,Cambodia,Kandal,Angk Snuol,Mekong Mainstrem - Lower Tonle Sap,11.5123,104.7165,,,World Resources Institute,datasets.wri.org/dataset/globalpowerplantdatabase; https://cdm.unfccc.int/Projects/DB/DNV-CUK1144657688.42/view,,
29,"Angvian Industry Co., Ltd",Biomass,Unknown,30.0,,Thailand,Wangkanai Group,,,,,Thailand,Nakhon Ratchasima,Kaeng Sanam Nang,Mun-Chi,15.73342,102.287,,,EGAT PDP,Bagasse,http://www.egat.co.th/en/images/about-egat/PDP2015_Eng.pdf; http://www.wangkanai.co.th/en/business.html,
30,Anita Asia Rooftop Solar,Solar,Operational,0.0926,2017.0,Austria; Myanmar,Anita Asia,,,Laos,Sunlabob Renewable Energy Co. (Laos),Myanmar,Yangon,Yangon-N,Irrawaddy Mainstem and Delta,16.95431,96.18635,,,,"https://www.pv-magazine.com/2017/07/04/myanmar-sunlabob-renewable-energy-commissions-92-6-kwp-rooftop-solar/, https://www.sunlabob.com/news-2017/sunlabob-renewable-energy-partners-with-anita-asia-on-rooftop-solar-pv-at-myanmar-garment-factory.html",,
31,Ann,Wind,Planned,120.0,,China,China Three Gorges (China),,,,,Myanmar,Rakhine,Kyaunkpyu,An Chaung,19.76718,94.00079,"Actual location unknown, currently sited at locality in link/announcement",,Myanmar Institute for Peace and Security,http://www.oilseedcrops.org/wp-content/uploads/2013/06/Ministry-of-Electric-Power-Myanmar-Wind-Power-Resources-Survey-2012-.pdf; https://www.asiabiomass.jp/english/topics/1509_05.html,,
32,Ann,Wind,Planned,240.0,,China,China Three Gorges (China),,,,,Myanmar,Rakhine,Kyaunkpyu,An Chaung,19.76718,94.00079,"Actual location unknown, currently sited at locality in link/announcement",,Myanmar Institute for Peace and Security,http://www.oilseedcrops.org/wp-content/uploads/2013/06/Ministry-of-Electric-Power-Myanmar-Wind-Power-Resources-Survey-2012-.pdf; https://www.asiabiomass.jp/english/topics/1509_05.html,,
33,Annchaung,Hydro,Cancelled,10.0,,Myanmar,MOEP,,,,,Myanmar,Rakhine,Kyaunkpyu,An Chaung,19.61413,93.9995,"Actual location unknown, currently sited at locality in link/announcement",,Myanmar Institute for Peace and Security,https://www.ifc.org/wps/wcm/connect/3f136d35-74fe-4601-90f8-4a03c4d22a2b/Chapter+2_SEA+Baseline+Assessment_Hydropower.pdf?MOD=AJPERES,,
34,ANZ bank project,Solar,Operational,0.09,2016.0,Laos,Sunlabob Renewable Energy (Laos),,,,,Laos,Vientiane [prefecture],Sisattanak,Mekong Mainstream - Lower,17.97611,102.6328,"Actual location unknown, currently sited at locality in link/announcement",,Online,"http://sunlabob.com/news-2016/sunlabob-completes-lao-pdrs-first-ever-commercial-solar-project.html
 https://www.pv-magazine.com/2016/06/16/first-ever-commercial-solar-project-realized-in-laos_100025012/",The project is the first-ever commercial grid-connected solar system in Laos,
35,Auto Alliance Rooftop Solar,Solar,Under Construction,5.0,2021.0,Thailand,Auto Alliance,,,Thailand,WHA Utilitties and Power Plc,Thailand,Rayong,Pluak Daeng,Coastal Rivers Rayong Chon Buri,13.0066632880568,101.165971137131,,,Bangkok Post,,https://www.bangkokpost.com/business/2053139/whaup-lands-solar-contract-with-aat,03/26/2021
36,Ayun Ha,Hydro,Operational,3.0,,Vietnam,Gia Lai Electricity JSC.,,,,,Vietnam,Gia Lai,Phú Thiện,Ia Ayun-La Khe-Ea Yao,13.5809,108.2592,,,Open Development Vietnam,https://data.opendevelopmentmekong.net/vi/library_record/ayun-ha-Hydropower,,
37,Ayuthaya Mill,Coal,Operational,36.0,2017.0,Thailand,Hiang Seng Fibre Container Co (Thailand),,,,,Thailand,Phra Nakhon Si Ayutthaya,Bang Sai,Chao Phraya-Ping,14.21667,100.5,,,Global Energy Monitor,http://enipedia.tudelft.nl/wiki/Ayuthaya_Mill_Powerplant,,
38,B&T Wind Farm (Trang trại điện gió B&T),Wind,Planned,352.0,,Philippines,The Ayala Group,,,,,Vietnam,Quảng Bình,Bố Trạch,Song Son,17.61,106.35,"Actual location unknown, currently sited at locality in link/announcement",,Stimson database,http://www.thestandard.com.ph/business/power-technology/269201/ayala-to-build-big-vietnam-wind-project-.html,https://baodautu.vn/nha-dau-tu-philippines-nghien-cuu-dau-tu-dien-gio-dien-mat-troi-tai-quang-binh-d83127.html,
39,B.Grimm BIP,Gas,Operational,230.0,2016.0,Thailand,B.Grimm,,,,,Thailand,Pathum Thani,Muang Pathum Thani,Chao Phraya-Ping,13.9745,100.5649,,941634.7,World Resources Institute,http://www.bgrimmpower.com/power-plants/power-plants-in-operation/,,12/28/2020
40,B.Grimm Power (Laem Chabang) 1&2,Gas,Operational,159.0,2009.0,Thailand,B.Grimm,,,,,Thailand,Chon Buri,Si Racha,Coastal Rivers Rayong Chon Buri,13.0913,100.8943,,650956.2,Sponsor Website,https://investor.bgrimmpower.com/misc/presentation/20190521-bgrim-oppday-1q2019-02.pdf,http://www.bgrimmpower.com/power-plants/power-plants-in-operation/,
41,B.Grimm Power (WHA) 1 Limited (Bowin Clean Energy),Gas,Operational,132.0,2017.0,Thailand,"Bowin Clean Energy, Ltd., Hemaraj Energy, Ltd., B.Grimm Power",,,Finland; Japan,"Pöyry, Sumitomo Corp., Toshiba Plant Systems",Thailand,Chon Buri,Si Racha,Coastal Rivers Rayong Chon Buri,13.0505,101.0859,,540416.5,World Resources Institute,http://www.bgrimmpower.com/power-plants/power-plants-in-operation/; https://www.facebook.com/B.Grimmpowerwha1limited/posts/we-changed-our-name-from-bowin-clean-energy-limited-to-bgrimm-power-wha-1-limite/1177040169061474/; https://www.bgrimmpower.com/en/power-plants/domestic/46/bgrimm-power-wha-1-limited; https://www.wha-industrialestate.com/en/media-activities/news/customer-news/483/bowin-clean-energy-lays-a-foundation-stone-for-power-plant-in-hemaraj-cie; https://www.nationthailand.com/news/30315467,,12/28/2020
42,Ba Ria,Gas,Operational,389.0,,Vietnam,Vietnam Electricity (EVN),,,,,Vietnam,Bà Rịa - Vũng Tàu,Bà Rịa,Coastal Tributaries Ba Ria-Dong Nai-HCMC,10.4891,107.17,,,World Resources Institute,http://www.evn.com.vn/userfile/files/2017/3/AnnualReport2016.pdf,,
43,Ba Thuoc 2,Hydro,Operational,80.0,2013.0,Vietnam,Hoang Anh Lai,,,,,Vietnam,Thanh Hóa,Bá Thước,Ma mainstem,20.32417,105.3219,,,Vietnam Electricity,https://en.evn.com.vn/userfile/User/huongbtt/files/2018/1/Quyetinh95CUCDTDL2017.pdf; https://data.opendevelopmentmekong.net/vi/library_record/ba-thuoc-2-Hydropower,,
44,Baan-Kluai Solar Power Plant Phase 1 at Gunkul,Solar,Unknown,8.61,,Thailand; United Kingdom,"Gunkul Powergen Co. Ltd., Agrinergy Pte Ltd.",,,,,Thailand,Phetchabun,Chon Daen,Nan,16.04854,100.7449,,12483,UNFCCC,https://cdm.unfccc.int/Projects/DB/LRQA%20Ltd1346679861.43/view,,
45,Baanrai Biomass Power Plant,Biomass,Operational,9.9,2013.0,Thailand,"Baanrai Electricity Generating Co., Ltd. (subsidiary of Thai Roong Ruang Sugar Group)",,,,,Thailand,Uthai Thani,Ban Rai,Tha Chin,15.01314,99.62373,,,UNFCCC,https://www.bib.co.th/project/baanrai-sugar-industry/,https://cdm.unfccc.int/Projects/DB/LRQA%20Ltd1359378194.83/view,03/18/2021
46,Bac Ai Pumped-Storage Hydropower Project,Hydro,Under Construction,1200.0,2029.0,Vietnam,EVN,,,Vietnam,"Power Engineering Consulting JSC 4, Construction JSC 47",Vietnam,Ninh Thuận,Bác Ái,Song Cai Phan Rang,11.8441696649849,108.774619236889,"Actual location unknown, currently sited at locality in link/announcement",,Boston University,https://en.evn.com.vn/d6/news/Ceremony-of-implementing-construction-and-launching-emulation-for-completing-discharge-gate-work-cluster-of-Bac-Ai-Pumped-Storage-Hydropower-Project-66-142-1744.aspx,https://data.mendeley.com/datasets/ht9k5p3vdb/1,03/31/2021
47,Bac Binh,Hydro,Operational,33.0,2009.0,Vietnam,Power Development JSC,,,,,Vietnam,Bình Thuận,Bắc Bình,Song Luy,11.45722,108.3525,_x0008_,,Vietnam Electricity,https://en.evn.com.vn/userfile/User/huongbtt/files/2018/1/Quyetinh95CUCDTDL2017.pdf; https://data.opendevelopmentmekong.net/vi/library_record/bac-binh-Hydropower,,
48,Bac Ha,Hydro,Operational,90.0,,Vietnam,LICOGI,,,,,Vietnam,Lào Cai,Bắc Hà,Song Lo-Nga Tao,22.50703,104.1957,,,Vietnam Electricity,https://en.evn.com.vn/userfile/User/huongbtt/files/2018/1/Quyetinh95CUCDTDL2017.pdf,,
49,Bac Lieu Cai Cung (Nhà máy Nhiệt điện Bạc Liêu - Cái Cùng),Coal,Cancelled,1200.0,2019.0,Vietnam; Japan,"Nhiệt điện Cái Cùng -- a JV betwen (1)Tập đoàn Điện lực Việt Nam - EVN, (2)Tập đoàn Sojitz Kyushu",,,,,Vietnam,Bạc Liêu,Hoà Bình,Vietnam Mekong Delta,9.165922,105.5751,"Actual location unknown, currently sited at locality in link/announcement",,EVN,https://www.nhandan.com.vn/kinhte/item/32349502-bac-lieu-xin-loai-du-an-nhiet-dien-cai-cung-khoi-quy-hoach.html,,
50,Bac Lieu LNG ((Nhà máy nhiệt điện khí LNG Bạc Liêu) - built in 3 stages,Gas,Planned,3200.0,2027.0,USA; Vietnam,"Delta Offshore Energy, Viện Năng Lượng (Ministry of Commerce and Trade)",,,,,Vietnam,Bạc Liêu,Hoà Bình,Vietnam Mekong Delta,9.231163,105.6935,"Actual location unknown, currently sited at locality in link/announcement",,Nhan Dan,https://vietnambiz.vn/du-an-dien-khi-lng-4-ty-usd-tai-bac-lieu-co-the-phat-dien-1000-mw-vao-nam-2021-65384.htm; https://www.enerdata.net/publications/daily-energy-news/vietnam-adds-two-lng-power-projects-27-3-gw-national-planning.html,,
51,Bac Lieu Wind 1-2 (Nhà máy Điện gió Bạc Liêu giai đoạn 1 và 2),Wind,Operational,142.0,2018.0,Vietnam,Cong Ly Ltd Co (Công ty trách nhiệm hữu hạn Xây dựng - Thương mại và Du lịch Công Lý),,,,,Vietnam,Sóc Trăng,Vĩnh Châu,,9.237223,105.8344,,639000,National Power Development Plan VII,https://www.vir.com.vn/cong-ly-kicks-off-two-more-wind-power-projects-56056.html,,
52,Bac Lieu Wind 3 (Nhà máy Điện gió Bạc Liêu giai đoạn 3),Wind,Planned,133.0,2018.0,Vietnam,Cong Ly Ltd Co (Công ty trách nhiệm hữu hạn Xây dựng - Thương mại và Du lịch Công Lý),,,,,Vietnam,Bạc Liêu,Bạc Liêu,,9.224813,105.8051,,,Wikipedia,,,
53,Bac Me,Hydro,Operational,45.0,2018.0,Vietnam,Vietracimex,Japan,Sumitomo Mitsui Banking Corporation (Japan); The Gunma Bank Ltd. (Japan); The Chugoku Bank.; Ltd. (Japan); and The Bank of Yokohama; Ltd.. (Japan),,,Vietnam,Hà Giang,Bắc Mê,Song Lo-Nga Tao,22.73767,105.3837,,,Vietnam Electricity,https://en.evn.com.vn/userfile/User/huongbtt/files/2018/1/Quyetinh95CUCDTDL2017.pdf,,
54,Baluchaung (Upper),Hydro,Under Construction,30.4,,Myanmar,"Neo Energy Oasis Development Co., Ltd. (Myanmar)",,,Japan,"Nippon Koei Co., Ltd  (Project Participant) (Japan)",Myanmar,Shan,Taunggye,Nam Pawn,20.48459,96.78192,,,Myanmar Institute for Peace and Security,https://www.ifc.org/wps/wcm/connect/07b1eba5-9c63-4f7c-8674-d463732a0395/Copy+of+18+02+07+MYA+SEA+HP+Database+WB-IFC.xlsx?MOD=AJPERES,,
55,Baluchaung-1,Hydro,Operational,28.0,1992.0,Myanmar,MEPE,Japan,Japanese assistance (Japan),Japan,"Nippon Koei co., Ltd",Myanmar,Kayah,Loikaw,Nam Pawn,19.64842,97.28693,,,Myanmar Institute for Peace and Security,"http://www.moee.gov.mm/en/ignite/page/288, https://www.mmtimes.com/national-news/24881-baluchaung-no-2-hydropower-plant-rehabilitated.html; https://data.mendeley.com/datasets/ht9k5p3vdb/1",,03/31/2021
56,Baluchaung-2,Hydro,Operational,168.0,1954.0,Myanmar,MEPE (Myanmar),Japan,Japanese assistance (Japan),,,Myanmar,Kayah,Loikaw,Nam Pawn,19.557,97.358,,,Myanmar Institute for Peace and Security,"http://www.moee.gov.mm/en/ignite/page/288: 84 MW in 1960, 84 MW in 1974; https://www.mmtimes.com/national-news/24881-baluchaung-no-2-hydropower-plant-rehabilitated.html; https://en.wikipedia.org/wiki/List_of_power_stations_in_Myanmar",,
57,Baluchaung-3,Hydro,Operational,52.0,2015.0,Myanmar,Future Energy (Myanmar),Japan,Japanese assistance (Japan),,,Myanmar,Kayah,Loikaw,Nam Pawn,19.546,97.397,,,Myanmar Institute for Peace and Security,"http://www.moee.gov.mm/en/ignite/page/288, https://www.mmtimes.com/national-news/24881-baluchaung-no-2-hydropower-plant-rehabilitated.html; https://www.ifc.org/wps/wcm/connect/07b1eba5-9c63-4f7c-8674-d463732a0395/Copy+of+18+02+07+MYA+SEA+HP+Database+WB-I",,
58,Bamnet Narong - BSE Solar Power Plant,Solar,Operational,16.0,,Thailand,"Bangchak Solar Energy Company, Ltd.",,,,,Thailand,Chaiyaphum,Bamnet Narong,Mun-Chi,15.4211,101.6985,,21338.47,World Resources Institute,http://www.bangchak.co.th,,
59,Bamnet Narong - BSP Solar Power Plant,Solar,Operational,22.5,,Thailand,Siam Solar Generation Company Limited,,,,,Thailand,Chaiyaphum,Bamnet Narong,Mun-Chi,15.445,101.7882,,30007.22,World Resources Institute,http://www.bangkoksolarpower.com/en/reference_project,,
60,Bamnet Narong power station,Coal,Under Construction,56.0,2020.0,Thailand,ASEAN Potash Mining Company (Thailand),,,,,Thailand,Chaiyaphum,Bamnet Narong,Mun-Chi,15.50028,101.6864,,,Global Energy Monitor,https://www.sourcewatch.org/index.php/Bamnet_Narong_power_station,,
61,Ban Beung Power Plant,Biomass,Operational,9.9,2012.0,Thailand,"Advance Clean Power Co., Ltd.",,,,,Thailand,Chon Buri,Ban Bung,Chao Phraya-Ping,13.24494,101.3064,,,Absolute Clean Energy,Wood residue and barks,https://www.ace-energy.co.th/en/our-business/projects/biomass-power-plant-projects/22/ban-bueng-power-plant; https://cdm.unfccc.int/Projects/DB/RWTUV1354513629.21/view,
62,Ban Chan De Hydropower Plant,Hydro,Under Construction,18.0,2020.0,Thailand,EGAT,,,,,Thailand,Kanchanaburi,Muang Kanchanaburi,Nam Mae Khlong Mainstem,14.18808,99.30914,"Actual location unknown, currently sited at locality in link/announcement",,Electricity Generating Authority of Thailand,,,
63,Ban Chat (Thủy điện Bản Chát),Hydro,Operational,220.0,2013.0,Vietnam,EVN,,,Vietnam,Infrastructure Development and Construction Corporation(LICOGI),Vietnam,Lai Châu,Than Uyên,Black-Li Xian,21.86111,103.8281,,,Vietnam Electricity,https://www.licogi166.vn/en/cong-trinh-thuy-dien-ban-chat-a59.html,,
64,Ban Coc,Hydro,Operational,18.0,2009.0,Vietnam,Que Phong Hydropower JSC,,,,,Vietnam,Nghệ An,Quế Phong,Song Con,19.6053,104.859,,80000,Open Development Vietnam,https://data.opendevelopmentmekong.net/vi/library_record/ban-coc-Hydropower,,
65,Ban Khun Klang Dam,Hydro,Operational,0.2,1982.0,Thailand,EGAT (Thailand),,,,,Thailand,Chiang Mai,Chom Thong,Chao Phraya-Ping,18.53343,98.52203,"Actual location unknown, currently sited at locality in link/announcement",,EGAT,https://www.egat.co.th/en/sustainable-development/royally-initiated-development-projects,,
66,Ban Kluai Solar Power Plant,Solar,Operational,7.4,,Thailand; Japan,"Gunkul Chubu Powergen Company Limited (Thailand, Japan)",,,,,Thailand,Phetchabun,Chon Daen,Nan,16.0488,100.7428,,9869.042,World Resources Institute,http://www.gunkul.com,,
67,Ban Koum,Hydro,Planned,1872.0,,Thailand; Laos,Italian Thai and Asian Corp Holdings Limited (Thailand),,,,,Thailand,Ubon Ratchathani,Khong Chiam,Mekong Mainstream - Lower,15.41788,105.5874,,,"Ministry of Energy and Mines, Lao PDR","Signed MOU 25/3/2008, passed on 25/09/2010 first time, passed 25/09/2011",,
68,Ban Krut Power Plant,Gas,Unknown,1400.0,,"Thailand; Japan; Hong Kong, China",Union Power Development Co. Ltd. (Thailand); Tomen Co. (Japan); Toyota Tsusho (Japan); Shubu Electric (Japan); Hong Kong Electric,,,,,Thailand,Rayong,Ban Khai,Coastal Rivers Rayong Chon Buri,12.84734,101.3997,"Actual location unknown, currently sited at locality in link/announcement",,Greenpeace,https://www.greenpeace.org/archive-seasia/ph/PageFiles/106311/rpt_ce_edison.pdf,,
69,Ban Ra,Hydro,Operational,18.0,2012.0,Vietnam,Dong Bac. EL JSC,,,,,Vietnam,Cao Bằng,Trùng Khánh,Pearl,22.859,106.6998,,70000,Open Development Vietnam,https://data.opendevelopmentmekong.net/vi/library_record/th-y-di-n-b-n-r,,
70,Ban Santi,Hydro,Operational,1.28,1981.0,Thailand,EGAT (Thailand),,,,,Thailand,Yala,Bannang Star,Pattani,6.141788,101.2937,"Actual location unknown, currently sited at locality in link/announcement",,EGAT,https://books.google.com/books?id=Q7YL5MkwRmEC&pg=PA181&lpg=PA181&dq=pattani+dam+and+ban+santi&source=bl&ots=KrgIJqUqVX&sig=ACfU3U3vz9GmV37AtuRdQ110LjyU6meqCg&hl=en&sa=X&ved=2ahUKEwias-rUz7XlAhWBmuAKHeL8CLIQ6AEwAXoECAkQAQ; https://www.egat.co.th/en/susta,,
71,Ban Ve (Thủy điện Bản Vẽ),Hydro,Operational,320.0,2010.0,Vietnam,EVN (Vietnam),,,Vietnam,Song Da Construction Corp.,Vietnam,Nghệ An,Tương Dương,Song Ca,19.34111,104.4875,,,Wikipedia,https://www.power-technology.com/projects/ban-ve-Hydro/; https://data.mendeley.com/datasets/ht9k5p3vdb/1,,03/31/2021
72,Ban Yang Dam,Hydro,Operational,0.13,1972.0,Thailand,EGAT (Thailand),,,,,Thailand,Chiang Mai,Mae Chaem,Chao Phraya-Ping,18.56751,98.44185,"Actual location unknown, currently sited at locality in link/announcement",,EGAT,https://www.egat.co.th/en/sustainable-development/royally-initiated-development-projects,,
73,Bang Ban Solar Power Plant,Solar,Operational,7.0,,Thailand,"Bangkok Solar Power Company, Ltd.",,,,,Thailand,Phra Nakhon Si Ayutthaya,Bang Ban,Chao Phraya-Ping,14.4418,100.481,,9335.58,World Resources Institute,http://www.bangkoksolarpower.com/en/reference_project,,
74,Bang Bo,Gas,Operational,350.0,2000.0,Thailand,Eastern Power and Electric Company,,,,,Thailand,Samut Prakan,Bang Bo,Chao Phraya-Ping,13.492,100.8416,,1432922,GEODB,http://www.alstom.com/press-centre/2013/1/alstom-will-service-and-upgrade-bang-bo-gas-fired-power-plant-in-thailand/,,
75,Bang Lang Dam,Hydro,Operational,76.0,1981.0,Thailand,EGAT (Thailand),,,,,Thailand,Yala,Bannang Star,Pattani,6.1555,101.273,,,Wikipedia,,,
76,Bang Pakong,Gas,Operational,4384.0,,Thailand,Electric Generating Authority of Thailand,Thailand,Electric Generating Authority of Thailand,Thailand,Electric Generating Authority of Thailand,Thailand,Chachoengsao,Bang Pakong,Chao Phraya-Ping,13.501,101.0253,,17948380,GEODB,http://www.egat.co.th/en/index.php?option=com_content&view=article&id=92&Itemid=118,,
77,Bang Pakong Power Plant,Gas,Operational,2490.0,1985.0,Thailand,EGAT (Thailand),,,,,Thailand,Chachoengsao,Bang Pakong,Chao Phraya-Ping,13.50143,101.025,,,Electricity Generating Authority of Thailand,https://www.egat.co.th/en/information/power-plants-and-dams?view=article&id=37,,
78,Bang Sai Solar Power Plant,Solar,Operational,1.7,,Thailand,"Bangkok Solar Power Company, Ltd.",,,,,Thailand,Phra Nakhon Si Ayutthaya,Bang Sai,Chao Phraya-Ping,14.3215,100.3025,,2267.212,World Resources Institute,http://www.bangkoksolarpower.com/en/reference_project,,
79,Bang Wou Power Plant,Biomass,Unknown,3.0,1987.0,Thailand,"Advance Power Conversion Co., Ltd.",,,,,Thailand,Suphan Buri,Muang Suphanburi,Tha Chin,14.55819,100.0074,"Actual location unknown, currently sited at locality in link/announcement",,Advance Power Conversion Co.,Rice husk,http://www.apcon.co.th/wp-content/uploads/2019/04/APCON-presentation-R11.pdf,
80,Bangchak Solar Power Plant,Solar,Operational,16.0,,Thailand,"Bangchak Solar Energy Company, Ltd.",,,,,Thailand,Phra Nakhon Si Ayutthaya,Bang Pa-In,Chao Phraya-Ping,14.1691,100.5528,,21338.47,World Resources Institute,http://www.bangchak.co.th,,
81,Bangchak Solar Power Project,Solar,Operational,44.5,2013.0,Thailand,"SOLARCO COMPANY LIMITED (Thailand), Yanhee EGCO Holding (Thailand)",ADB,ADB,,,Thailand,Phra Nakhon Si Ayutthaya,Bang Pa-In,Chao Phraya-Ping,14.16649,100.5533,,,ADB,https://www.adb.org/projects/46934-014/main#project-pds,,
82,Bangkok Hsfc Plant 2R,Coal,Operational,36.0,2000.0,Thailand,Hiang Seng Fibre Container Co (Thailand),,,,,Thailand,Phra Nakhon Si Ayutthaya,Nakhon Luang,Pasak,14.4,100.5833,,,Global Energy Monitor,http://enipedia.tudelft.nl/wiki/Bangkok_Hsfc_Plant_Powerplant,,
83,Bangkok Kamphaeng Saen East,Waste,Unknown,8.0,,Thailand,"Bangkok Greenpower Co., Ltd.",United Kingdom,Xentolar Holdings Ltd. (UK); Sindicatum Carbon Capital Ltd. (UK),,,Thailand,Nakhon Pathom,Kamphaeng Saen,Tha Chin,14.06406,99.94749,,,UNFCCC,Landfill gas collection,https://cdm.unfccc.int/Projects/DB/SGS-UKL1267631662.24/view,
84,Bangkok Kamphaeng Saen West,Waste,Unknown,8.0,,Thailand,Progress Energy Co. Ltd,Thailand; United Kingdom,Zenith Green Energy Co. Ltd. (Thailand); Xentolar Holdings Ltd. (UK); Sindicatum Carbon Capital Ltd. (UK),,,Thailand,Nakhon Pathom,Kamphaeng Saen,Tha Chin,14.05628,99.93474,,,UNFCCC,Landfill gas collection,https://cdm.unfccc.int/Projects/DB/SGS-UKL1268326008.88/view,
85,Bangna Starch Wastewater Treatment,Waste,Unknown,2.85,,Thailand,P & Papop Renewable Co. Ltd.,,,Switzerland,South Pole Carbon Asset Management ltd.,Thailand,Kalasin,Yang Talat,Mun-Chi,16.38548,103.4726,,,UNFCCC,Biogas from wastewater from tapioca starch,https://cdm.unfccc.int/Projects/DB/RWTUV1241593452.75/view,
86,Bangpakong Power Plant,Biomass,Unknown,10.4,1991.0,Thailand,"Advance Power Conversion Co., Ltd.",,,,,Thailand,Chachoengsao,Sanam Chaikhet,Chao Phraya-Ping,13.63094,101.4289,"Actual location unknown, currently sited at locality in link/announcement",,Advance Power Conversion Co.,"Rice husk, eucalyptus bark and wood chips",http://www.apcon.co.th/wp-content/uploads/2019/04/APCON-presentation-R11.pdf,
87,Bangsapan-noi Biomass Company Limited Biomass Generation,Biomass,Unknown,8.0,2009.0,Thailand,TPC Power Holding PLC,,,,,Thailand,Prachuap Khiri Khan,Bang Saphan Noi,Coastal Rivers Prachuap Khiri Khan-Chumphon,11.06171,99.43132,"Actual location unknown, currently sited at locality in link/announcement",,TPC Power Holding PLC website,Palm by-products,http://www.tpcpower.co.th/our-business/bio?lang=en#; http://tpch.listedcompany.com/misc/ShareholderMTG/egm201701/20170914-tpch-egm201701-enc02-en.pdf,
88,Banteay Meanchey Solar Plant,Solar,Under Construction,30.0,2022.0,Thailand,Ray Power Supply Co. Ltd.,,,,,Cambodia,Banteay Meanchey,Preah Netr Preah,Steng Mongkol Borei-Battambang,13.6313498042694,103.106274810679,"Actual location unknown, currently sited at locality in link/announcement",,The Phnom Penh Post,https://www.khmertimeskh.com/50789427/sunny-days-for-solar-power/, https://www.phnompenhpost.com/national/banteay-meanchey-solar-energy-project-awarded,12/28/2020
89,Battambang 60 MW Solar,Solar,Under Construction,60.0,2020.0,China,Risen Energy,Germany; EU; France,"Deutsche Investitions- und Entwicklungsgesellschaft, European Investmtn Bank, French Development Agency",,,Cambodia,Battambang,Sangkae,Steng Mongkol Borei-Battambang,13.0569414258393,103.230718319644,"Actual location unknown, currently sited at locality in link/announcement",,Online,https://www.pv-magazine.com/2019/07/15/cambodia-approves-four-pv-projects-totaling-140-mw/; https://www.khmertimeskh.com/50789427/sunny-days-for-solar-power/; https://www.phnompenhpost.com/business/china-firm-backs-battambang-solar-farm; https://www.khmertimeskh.com/50726630/listed-chinese-firm-licensed-to-build-another-solar-park/,https://www.akp.gov.kh/post/detail/13129,12/28/2020
90,Bau Ngu (Điện mặt trời Bàu Ngứ),Solar,Under Construction,50.0,2019.0,Vietnam,Công ty CP Đầu tư xây dựng và phát triển Trường Thành (Vietnam),,,,,Vietnam,Ninh Thuận,Thuận Nam,Song Cai Phan Rang,11.47129,108.9623,,100000,Wikipedia,http://nangluongvietnam.vn/news/vn/dien-hat-nhan-nang-luong-tai-tao/nha-may-dien-mat-troi-bau-ngu-hoa-luoi-dien-quoc-gia.html,https://vi.wikipedia.org/wiki/%C4%90i%E1%BB%87n_m%E1%BA%B7t_tr%E1%BB%9Di_B%C3%A0u_Ng%E1%BB%A9,
91,Bau Zon (Điện mặt trời Bàu Zôn),Solar,Under Construction,25.0,2020.0,Vietnam,Công ty Cổ phần Bắc Phương và Công ty TNHH năng lượng mặt trời TT.Sunglim (Vietnam),Vietnam,Vietcombank (Vietnam),,,Vietnam,Ninh Thuận,Ninh Phước,Song Cai Phan Rang,11.51685,108.8873,"Actual location unknown, currently sited at locality in link/announcement",,Wikipedia,http://nangluongvietnam.vn/news/vn/dien-hat-nhan-nang-luong-tai-tao/ky-hop-dong-tong-thau-du-an-nha-may-dien-mat-troi-bau-zon.html,http://tintuc.wecvietnam.org/ky-hop-dong-tong-thau-du-an-nha-may-dien-mat-troi-bau-zon/,
92,Bavet City Solar PV Plant,Solar,Operational,10.0,2017.0,Singapore; Cambodia,"Sunseap (Asset) Cambodia Co. Ltd, majority-owned subsidiary of Sunseap Group (Singapore)",ADB,ADB,,,Cambodia,Svay Rieng,Svay Teab,Song Vam Co Dong,11.07234,106.0598,,,IUCN,https://ppi.worldbank.org/snapshots/project/Svay-Rieng-PV-Solar-Farm-9096; https://www.khmertimeskh.com/5079197/solar-power-set-shine-bavet/; https://www.khmertimeskh.com/50556400/total-goes-solar/; https://d2oc0ihd6a5bt.clo,,
93,Bawgata,Hydro,Planned,160.0,2020.0,Myanmar,Thoolei Co. (Myanmar),,,Myanmar,Thoolei (Myanmar),Myanmar,Bago,Taungoo,Sittaung Mainstem,18.25556,96.8485,,,Myanmar Institute for Peace and Security,https://www.ifc.org/wps/wcm/connect/3f136d35-74fe-4601-90f8-4a03c4d22a2b/Chapter+2_SEA+Baseline+Assessment_Hydropower.pdf?MOD=AJPERES; https://www.ifc.org/wps/wcm/connect/07b1eba5-9c63-4f7c-8674-d463732a0395/Copy+of+18+02+07+MYA+SEA+HP+Database+WB-IFC.xl,,
94,BCG Bang Duong (Nhà máy điện mặt trời Băng Dương),Solar,Planned,40.6,2019.0,Vietnam,"Bamboo Capital Group BCG (Tập đoàn Bamboo Capital) and Bang Duong Construction Co. Ltd. (Công ty TNHH Xây dựng Băng Dương - EPC), through BCG Bang Duong JSC",Vietnam,Tien Phong Bank,Vietnam; Germany,"TRACODI (Công Ty cổ phân Đầu tư Phát triển Công Nghiệp và Vận tải), Syntegra Solar (Germany) (Design consultant and supervisory consultant)",Vietnam,Long An,Thạnh Hóa,Song Vam Ca Tay,10.59054,106.1456,,60000,Sponsor Website,http://baolongan.vn/long-an-dong-tho-du-an-nha-may-dien-mat-troi-dau-tien-cong-suat-40-6mw-a62841.html,,
95,Belin,Hydro,Planned,280.0,2021.0,Myanmar,Ministry of Electricity & Energy,,,Myanmar,Ministry of Electricity & Energy,Myanmar,Mon,Thaton,Bilin,17.2108871204109,97.2491075365269,"Actual location unknown, currently sited at locality in link/announcement",,Boston University,http://documents1.worldbank.org/curated/en/857971548867615099/pdf/134197-WP-MM-V2-SEA-Baseline-Assessment-Hydropower-PUBLIC.pdf,https://data.mendeley.com/datasets/ht9k5p3vdb/1,03/31/2021
96,"Ben Tre Nexif stage 1, 2, 3 (nhà máy Điện Gió Bến Tre Nexif Energy)",Wind,Under Construction,80.0,2020.0,Singapore,Nexif Energy (Singapore),,,,,Vietnam,Bến Tre,Thạnh Phú,Vietnam Mekong Delta,9.87373,106.6484,"Actual location unknown, currently sited at locality in link/announcement",250000,Stimson database,http://www.nexifenergy.com/press_release/nexif-energy-receives-approval-build-80-mw-wind-power-project-vietnam/,,
97,Bhumibol Dam,Hydro,Operational,779.0,1964.0,Thailand,EGAT (Thailand),,,Thailand,Yanhee Electricity Authority,Thailand,Tak,Sam Ngao,Chao Phraya-Ping,17.2425,98.97222,,,Wikipedia,https://www.egat.co.th/en/information/power-plants-and-dams?view=article&id=50; https://data.mendeley.com/datasets/ht9k5p3vdb/1,,03/31/2021
98,BIA Co. Lted.,Waste,Unknown,1.4,,Cambodia,Soma Energy,,,,,Cambodia,Battambang,Kamrieng,Steng Mongkol Borei-Battambang,13.091215,102.449212,"Actual location unknown, currently sited at locality in link/announcement",,Soma Energy,,https://somaenergy.com.kh/projects/,12/21/2020
99,Big C roof-top solar,Solar,Under Construction,16.0,2019.0,Japan,Sharp Corp (Japan),,,,,Thailand,Nakhon Ratchasima,Muang Nakhon Ratchasima,Mun-Chi,14.94473,102.0496,"Actual location unknown, currently sited at locality in link/announcement",,Stimson renewable energy database,http://www.sharp-world.com/corporate/news/170622.html,,
100,BIM 1 (Nhà máy điện mặt trời BIM 1),Solar,Operational,30.0,2019.0,Vietnam; Philippines,"CT Năng Lượng BIM Energy, Tập Đoàn BIM Group, AC Energy (subsidiary ò Ayala Group (Philippines)",Philippines; Vietnam,"Rizal Commercial Banking, BIM Group, AC Energy",France; Germany,"Bouygues Energies & Services, Juwi",Vietnam,Ninh Thuận,Thuận Nam,Coastal Tributaries Binh Thuan,11.443363,108.898254,,545000,Media,https://tuoitre.vn/ninh-thuan-co-them-3-nha-may-dien-mat-troi-20190427143351131.htm; https://www.nsenergybusiness.com/news/ac-energy-bim-group-solar/,https://www.nsenergybusiness.com/projects/bim-solar-power-plant/,12/21/2020
101,BIM 2 (Nhà máy điện mặt tròi BIM 2),Solar,Operational,250.0,2019.0,Vietnam; Philippines,"CT Năng Lượng BIM Energy, Tập Đoàn BIM Group, AC Energy (subsidiary ò Ayala Group (Philippines)",Philippines; Vietnam,"Rizal Commercial Banking, BIM Group, AC Energy",France,Bouygues Energies & Services,Vietnam,Ninh Thuận,Thuận Nam,Coastal Tributaries Binh Thuan,11.443363,108.898254,,600000,Media,https://www.nsenergybusiness.com/news/ac-energy-bim-group-solar/,https://www.nsenergybusiness.com/projects/bim-solar-power-plant/,12/21/2020
102,BIM 3 (Nhà máy điện mặt trời BIM 3),Solar,Operational,50.0,2019.0,Vietnam; Philippines,"CT Năng Lượng BIM Energy, Tập Đoàn BIM Group, AC Energy (subsidiary ò Ayala Group (Philippines)",Philippines; Vietnam,"Rizal Commercial Banking, BIM Group, AC Energy",France; Germany,"Bouygues Energies & Services, Juwi",Vietnam,Ninh Thuận,Thuận Nam,Coastal Tributaries Binh Thuan,11.443363,108.898254,,,Media,https://www.nsenergybusiness.com/news/ac-energy-bim-group-solar/,https://www.nsenergybusiness.com/projects/bim-solar-power-plant/,12/21/2020
103,Binh An (Nhà máy điện mặt trời Bình An) 58.88 ha - completed in 3 stages,Solar,Operational,50.0,2019.0,Vietnam,CT TNHH Năng Lượng Everich Bình Thuận,,,,,Vietnam,Bình Thuận,Bắc Bình,Song Luy,11.30904,108.4286,,,Sponsor Website,,,
104,Binh Dai 1 (Nhà máy điện gió Bình Đại giai đoạn 1),Wind,Under Construction,30.0,2017.0,,"Mekong Wind Power JSC, a TTC Affiliate (Vietnam)",,,,,Vietnam,Bến Tre,Bình Đại,Vietnam Mekong Delta,10.13529,106.7779,,84000,Stimson database,http://vietnamnews.vn/economy/418431/work-on-66m-wind-power-plant-starts-in-ben-tre.html#SIDY7KelqjWFGKwA.97,,
105,Binh Dai 2 (Nhà máy điện gió Bình Đại giai đoạn 2),Wind,Planned,280.0,2020.0,,"Mekong Wind Power JSC, a TTC Affiliate",,,,,Vietnam,Bến Tre,Bình Đại,Vietnam Mekong Delta,10.13529,106.7779,,,Sponsor Website,https://www.nhandan.com.vn/kinhte/item/34847702-khoi-xay-nha-may-dien-gio-gan-1-500-ty-dong-tai-ben-tre.html,,
106,Binh Dien,Hydro,Operational,44.0,2009.0,Vietnam,EVN (Vietnam); Binh Dien Hydropower JSC,,,,,Vietnam,Thừa Thiên Huế,Hương Trà,Song Trach,16.3175,107.5022,,,Wikipedia,http://www.hec.com.vn/contents/projects-construction-supervision/binh-dien-Hydropower-project.html; https://data.opendevelopmentmekong.net/vi/library_record/binh-dien-Hydropower,,
107,Binh Dinh (Nhà máy nhiệt điện Bình Định),Coal,Cancelled,1200.0,2016.0,Thailand,Electricity Generating Authority of Thailand - EGAT International (Thailand),,,,,Vietnam,Bình Định,Qui Nhơn,Coastal Tributaries Binh Dinh-Phu Yen,13.76902,109.2272,"Actual location unknown, currently sited at locality in link/announcement",,Sourcewatch,,,
108,Binh Dinh 2 (Nhà máy nhiệt điện Bình Định 2),Coal,Cancelled,1200.0,2016.0,Thailand,Electricity Generating Authority of Thailand - EGAT International (Thailand),,,,,Vietnam,Bình Định,Qui Nhơn,Coastal Tributaries Binh Dinh-Phu Yen,13.76902,109.2272,"Actual location unknown, currently sited at locality in link/announcement",,Sourcewatch,,,
109,Binh Nguyen (Điện mặt trời Bình Nguyên),Solar,Operational,50.0,2019.0,Thailand; Vietnam,"Tập đoàn Trường Thành Việt Nam, (Vietnam), Tập đoàn Sermsang (Thailand)",,,,,Vietnam,Quảng Ngãi,Bình Sơn,Vietnam Coastal Rivers Quang Nam,15.33337,108.7098,,77000,Wikipedia,https://vi.wikipedia.org/wiki/%C4%90i%E1%BB%87n_m%E1%BA%B7t_tr%E1%BB%9Di_B%C3%ACnh_Nguy%C3%AAn,http://quangngai.online/tin-quang-ngai/khoi-cong-nha-may-dien-nang-luong-mat-troi-tai-quang-ngai-23.html,
110,"Bio-Mass Power Co., Ltd.",Biomass,Unknown,5.0,,Thailand,"Bio-Mass Power Co., Ltd.",,,,,Thailand,Chachoengsao,Sanam Chaikhet,Chao Phraya-Ping,13.63094,101.4289,"Actual location unknown, currently sited at locality in link/announcement",,EGAT,Rice husk,http://www.egat.co.th/en/images/statistics/2556/eng-private-power-plant-dec56.pdf,
111,Biogas from Ethanol Wastewater,Waste,Unknown,1.24,2013.0,Thailand,"Bio Natural Energy Co., Ltd.",,,Japan,EX Corporation,Thailand,Si Sa Ket,Khun Han,Mun-Chi,14.55128,104.4823,,,UNFCCC,Biogas from ethanol wastewater,https://cdm.unfccc.int/Projects/DB/JQA1264982915.42/view,
112,Biogas from Wastewarer Management by Palm Power Green Co. Ltd.,Waste,Unknown,3.3,,Thailand,Palm Power Green Co. Ltd. (A.S.T. Palm Oil Co. Ltd.),,,,,Thailand,Prachuap Khiri Khan,Bang Saphan Noi,Coastal Rivers Prachuap Khiri Khan-Chumphon,11.01115,99.39584,,,UNFCCC,Biogas from wastewater from palm oil production,https://cdm.unfccc.int/Projects/DB/TUEV-RHEIN1356799210.55/view,
113,Biogas production from waste water of tapioca starch plant,Waste,Unknown,6.24,,Thailand,Thai Nam Tapioca Co. Ltd.,,,,,Thailand,Udon Thani,Muang Udon Thani,Huai Luang,17.38885,102.6246,,,UNFCCC,Biogas from wastewater from tapioca starch,https://cdm.unfccc.int/Projects/DB/SIRIM1270973187.27/view,
114,Biomass based Power Project,Biomass,Unknown,9.8,2012.0,Thailand; Germany,Evergreen Plus Co. Ltd.; RWE Power Aktiengesellschaft,,,,,Thailand,Lop Buri,Phatthana Nikhom,Pasak,14.8238,101.0733,,,UNFCCC,Woodchip and bark,https://cdm.unfccc.int/Projects/DB/RWTUV1353663131.54/view,
115,"Biomass Power Project of Gia Lai Cane Sugar and Thermoelectricity Joint
Stock Company (Nhà máy nhiệt điện Ayun Pa)",Biomass,Operational,12.0,2013.0,Vietnam,"Gia Lai Cane Sugar and Thermoelectricity Joint Stock Company (SEC), Investment and Trade Consultancy Company Limited (ITRACO)",Sweden; Finland,NeCF; funded by a consortium of European agencies; led by the Nordic Environment Finance Corporation (NEFCO) - a PPP,,,Vietnam,Gia Lai,Ayun Pa,Ia Ayun-La Khe-Ea Yao,13.42629,108.4214,,64800,World Resources Institute,http://www.evn.com.vn/userfile/files/2017/3/AnnualReport2016.pdf,,
116,Bionersis Project Thailand 1,Waste,Unknown,2.0,,Thailand,Bionersis  Ltd.,France,Bionersis S.A.,,,Thailand,Nakhon Pathom,Kamphaeng Saen,Tha Chin,14.0601,99.967,,,UNFCCC,Landfill gas collection,https://cdm.unfccc.int/Projects/DB/SGS-UKL1239808133.76/view,
117,BLCP Power Ltd Rayong Banpu Gas Power Ltd,Coal,Unknown,673.25,2006.0,,,,,,,Thailand,Rayong,Muang Rayong,Coastal Rivers Rayong Chon Buri,12.69244,101.1761,"Actual location unknown, currently sited at locality in link/announcement",,,,,
118,Blue Dot Wind Power Project,Wind,Planned,80.0,,Singapore,The Blue Circle Pte Ltd,,,,,Cambodia,Kampot,Tuek Chhou,Coastal Rivers Kampot-Sihanoukville,10.7798613615648,104.059408111879,"Actual location unknown, currently sited at locality in link/announcement",22500,The Phnom Penh Post,https://construction-property.com/planned-kampot-wind-farm-to-be-cambodias-first/,https://www.phnompenhpost.com/business/wind-power-horizon,03/29/2021
119,Blue Fire Bio Wastewater Treatment,Waste,Unknown,3.128,,Thailand,"Blue Fire Bio Co., Ltd.",,,Switzerland,South Pole Carbon Asset Management Ltd.,Thailand,Nakhon Ratchasima,Dan Khun Thot,Mun-Chi,15.1303,101.5586,,,UNFCCC,Biogas from wastewater from tapioca starch,https://cdm.unfccc.int/Projects/DB/TUEV-RHEIN1291833824.78/view,
120,BMT Solar Farm (dự án trang trại điện mặt trời BMT),Solar,Operational,30.0,2020.0,South Korea,"Solar Park Global, Long Thanh Infrastructure Development and Investment Company (Công ty cổ phần đầu tư và phát triển hạ tầng Long Thành)",,,,,Vietnam,Đắk Lắk,Krông Pắc,Srepok,12.77777,108.3589,,44000,EVN,https://www.pv-magazine.com/2017/03/13/vietnam-greenlights-3-3bn-worth-of-solar-pv-projects-reports/,http://nangluongsachvietnam.vn/d6/vi-VN/news/Khanh-thanh-du-an-trang-trai-dien-mat-troi-BMT-6-165-3700,
121,Bo Nok Power Plant,Gas,Unknown,734.0,,Thailand; USA,Gulf Power Generation Co. Ltd (Thailand); Gulf Electric Co. Ltd. (Thailand); Edison Mission Energy (USA),,,,,Thailand,Prachuap Khiri Khan,Muang Prachuap Khiri Khan,Coastal Rivers Prachuap Khiri Khan-Chumphon,11.69913,99.64742,"Actual location unknown, currently sited at locality in link/announcement",,Greenpeace,https://www.greenpeace.org/archive-seasia/ph/PageFiles/106311/rpt_ce_edison.pdf,,
122,Bo Phloi Power Plant,Biomass,Operational,9.9,2017.0,Thailand,"Advance Clean Power Co., Ltd.",,,,,Thailand,Kanchanaburi,Bo Phloi,Huai Lam Ta Phoen,14.32139,99.47778,,,Absolute Clean Energy,,https://www.ace-energy.co.th/en/our-business/projects/biomass-power-plant-projects/30/bo-phloi-power-plant,
123,Bokor Plateau,Hydro,Planned,28.0,,,,,,,,Cambodia,Kampot,Tuek Chhou,Coastal Rivers Kampot-Sihanoukville,10.81908,104.0158,,,OpenDevelopment,,,
124,Botum Sakor Coal Plant,Coal,Planned,700.0,2024.0,Cambodia,Royal Group,,,China,Sinosteel Engineering & Technology,Cambodia,Koh Kong,Botum Sakor,Coastal Rivers Koh Kong,10.9018980911396,103.38518533891,"Actual location unknown, currently sited at locality in link/announcement",,Media,https://akp.gov.kh/post/detail/223263; https://www.phnompenhpost.com/business/cdc-approves-royal-groups-700mw-coal-fired-power-plant; https://www.khmertimeskh.com/50784902/royal-group-a-step-closer-to-new-coal-fired-power-plant/,https://www.khmertimeskh.com/50791453/new-coal-fired-power-plant-approved/,12/28/2020
125,Bourbon,Oil,Operational,24.0,,,,,,,,Vietnam,Long An,Cần Đước,Song Vam Co Dong,10.613,106.49,,,World Resources Institute,http://www.evn.com.vn/userfile/files/2017/3/AnnualReport2016.pdf,,
126,BP Solar 1 (Điện mặt trời BP Solar 1),Solar,Operational,46.0,2019.0,,,,,,,Vietnam,Ninh Thuận,Ninh Phước,Song Cai Phan Rang,11.5174,108.885,"Actual location unknown, currently sited at locality in link/announcement",74000,Sponsor Website,https://vi.wikipedia.org/wiki/%C4%90i%E1%BB%87n_m%E1%BA%B7t_tr%E1%BB%9Di_BP_Solar_1,,
127,Bu Ca Mau,Hydro,Operational,4.0,2009.0,Vietnam,"Cat Nam Trading - Services and Production Company, Limited",,,,,Vietnam,Bình Phước,Phước Long,Dong Nai,11.8713,106.9768,,12500,Open Development Vietnam,https://data.opendevelopmentmekong.net/vi/library_record/bu-ca-mau-Hydropower,,
128,Buanlung,Hydro,Planned,30.0,,China,PowerChina International (China),,,,,Myanmar,Chin,Palam,Lemyo,22.5015,93.54418,"Actual location unknown, currently sited at locality in link/announcement",,,https://www.bnionline.net/en/news/chin-govt-approves-five-chinese-hydropower-projects,,
129,Buasommai I biomass power plant,Biomass,Unknown,9.9,2013.0,Thailand; Switzerland,"Buasommai Electricity Generating Co., Ltd., Quality Carbon Assets AG",,,,,Thailand,Roi Et,Muang Roi Et,Mun-Chi,16.08468,103.6412,,,UNFCCC,Rice husk and wood chips,https://cdm.unfccc.int/Projects/DB/TUEV-RHEIN1355310269.77/view,
130,Buasommai II biomass power plant,Biomass,Unknown,9.9,2013.0,Thailand; Switzerland,"Buasommai Electricity Generating Co., Ltd., Quality Carbon Assets AG",,,,,Thailand,Roi Et,Suwannaphum,Mun-Chi,15.61406,103.83,,,UNFCCC,Rice husk and wood chips,https://cdm.unfccc.int/Projects/DB/TUEV-RHEIN1355370804.55/view,
131,Bukit Asam,Coal,Cancelled,200.0,,Indonesia,PT Bukit Asam (Indonesia),,,,,Myanmar,Shan,Kengtung,Nan Lue-Nan Lan,21.27094,99.98586,"Actual location unknown, currently sited at locality in link/announcement",,Global Energy Monitor,https://www.sourcewatch.org/index.php/Bukit_Asam_minemouth_power_station,,
132,Buon Tuasrah,Hydro,Operational,86.0,2009.0,Vietnam,EVN (Vietnam),,,,,Vietnam,Đắk Nông,Krông Nô,Srepok,12.28212,108.0413,,,Wikipedia,http://www.cc1jsc.com.vn/about-us/about-cc1.html,,
133,Buri Ram 1 Solar Power Plant,Solar,Operational,7.4,2013.0,Thailand,Solar Power (Bureerum 1) Company Limited (Solar Power Co. Ltd),,,,,Thailand,Buri Ram,Nong Ki,Mun-Chi,14.6592,102.6147,,9869.042,World Resources Institute,https://www.spcg.co.th/en/getSubsibiaries/18,,
134,Buri Ram 2 Solar Power Plant,Solar,Operational,7.4,2013.0,Thailand,Solar Power (Bureerum 2)Company Limited (Solar Power Co. Ltd),,,,,Thailand,Buri Ram,Nong Ki,Mun-Chi,14.6996,102.4787,,9869.042,World Resources Institute,https://www.spcg.co.th/en/getSubsibiaries/19,,
135,Buri Ram 3 Solar Power Plant,Solar,Operational,7.4,2014.0,Thailand,Solar Power (Bureerum 3) Company Limited (Solar Power Co. Ltd),,,,,Thailand,Buri Ram,Prakhon Chai,Mun-Chi,14.7615,103.0633,,9869.042,World Resources Institute,https://www.spcg.co.th/en/getSubsibiaries/24,,
136,Buriram Biomass Power Plant,Biomass,Unknown,9.9,2015.0,Thailand,"Buriram Energy Co., Ltd. (Subsidiary of Buriram Sugar Public Co., Ltd.)",,,,,Thailand,Buri Ram,Khu Muang,Mun-Chi,15.22887,103.0704,,71280,Buriram Sugar Company,"Bagasse from sugar production, woodchips, sugar leaves or chaff",http://www.buriramsugar.com/en/about/company-subsidiary/88/buriram-power-co-ltd,
137,Buriram Cogeneration Plant,Biomass,Unknown,9.9,2012.0,Thailand,"Buriram Energy Co., Ltd. (Subsidiary of Buriram Sugar Public Co., Ltd.)",,,,,Thailand,Buri Ram,Khu Muang,Mun-Chi,15.22098,103.0701,,,Buriram Sugar Company,Bagasse,http://www.buriramsugar.com/en/about/company-subsidiary/87/buriram-energy-coltd,
138,Buriram Power Plus Company,Biomass,Unknown,9.9,2015.0,Thailand,"Buriram Power Plus Co., Ltd.",,,,,Thailand,Buri Ram,Muang Buri Ram,Mun-Chi,14.81123,102.9438,"Actual location unknown, currently sited at locality in link/announcement",,Buriram Sugar Company,,http://www.buriramsugar.com/en/about/company-subsidiary/88/buriram-power-co-ltd,
139,Buriram Sugar Factory,Biomass,Unknown,18.5,,Thailand,"Buriram Sugar Factory Co., Ltd. (Subsidiary of Buriram Sugar Public Co., Ltd.)",,,,,Thailand,Buri Ram,Khu Muang,Mun-Chi,15.23215,103.0678,,,Buriram Sugar Company,Steam from sugar production,http://www.buriramsugar.com/en/about/company-subsidiary/4/buriram-sugar-factory-coltd,
140,Buôn Kuốp,Hydro,Operational,280.0,2011.0,Vietnam,EVN (Vietnam),,,Vietnam,Vinanico,Vietnam,Đắk Nông,Krông Nô,Srepok,12.52504,107.9258,,,Wikipedia,https://ejatlas.org/conflict/buon-kuop-Hydroelectric-project-vietnam; https://data.mendeley.com/datasets/ht9k5p3vdb/1,,03/31/2021
141,C on Top PV Solar Farm Project,Solar,Operational,12.0,,Thailand,"C on Top Co., Ltd.",,,,,Thailand,Chon Buri,Bang Lamung,Coastal Rivers Rayong Chon Buri,12.87887,100.9714,,17100,UNFCCC,https://cdm.unfccc.int/Projects/DB/LRQA%20Ltd1354884904.39/view,,
142,Ca Du,Hydro,Operational,2.6,2005.0,Vietnam,Ca Du Hydro Power Constructing JSC,,,,,Vietnam,Quảng Ngãi,Trà Bồng,Vietnam Coastal Rivers Quang Nam,15.2714,108.5186,,10000,Open Development Vietnam,https://data.opendevelopmentmekong.net/vi/library_record/ca-du-Hydropower,,
143,Ca Mau (Nhà máy điện mặt trời Cà Mau) 63 ha,Solar,Operational,50.0,2019.0,Vietnam,Cty Long Hưng (Vietnam),,,,,Vietnam,Cà Mau,Ngọc Hiển,Vietnam Mekong Delta,8.611446,105.0152,,73904,Sponsor Website,https://vi.wikipedia.org/wiki/%C4%90i%E1%BB%87n_m%E1%BA%B7t_tr%E1%BB%9Di_C%C3%A0_Mau,http://nangluongvietnam.vn/news/vn/dien-hat-nhan-nang-luong-tai-tao/nang-luong-tai-tao/ca-mau-xin-bo-sung-du-an-dien-mat-troi-50mw-vao-quy-hoach.html,
144,Ca Mau 1,Gas,Operational,750.0,2008.0,Vietnam,Ca Mau Petrovietnam Power Company,,,Vietnam,Lilama (Vietnam),Vietnam,Cà Mau,U Minh,Vietnam Mekong Delta,9.242059,105.0606,,,Vietnam Electricity,https://www.industryabout.com/country-territories-3/2905-vietnam/fossil-fuels-energy/46554-ca-mau-gas-power-plant; https://www.royalhaskoningdhv.com/en-gb/vietnam/projects/camau-power-plant-phase-1-and-phase-2/6021,http://www.evn.com.vn/userfile/files/2017/3/AnnualReport2016.pdf,12/21/2020
145,Ca Mau 2,Gas,Operational,750.0,2008.0,Vietnam,Ca Mau Petrovietnam Power Company,,,Vietnam,Lilama (Vietnam),Vietnam,Cà Mau,U Minh,Vietnam Mekong Delta,9.237454,105.0615,,,Vietnam Electricity,https://www.industryabout.com/country-territories-3/2905-vietnam/fossil-fuels-energy/46588-ca-mau-2-gas-power-plant; https://www.royalhaskoningdhv.com/en-gb/vietnam/projects/camau-power-plant-phase-1-and-phase-2/6021,,12/21/2020
146,Ca Na LNG,Gas,Planned,6000.0,2025.0,Thailand,Gulf Energy Development Group,,,,,Vietnam,Ninh Thuận,Thuận Nam,Coastal Tributaries Binh Thuan,11.366148,108.892376,"Actual location unknown, currently sited at locality in link/announcement",,Media,https://www.enerdata.net/publications/daily-energy-news/vietnam-adds-two-lng-power-projects-27-3-gw-national-planning.html; https://www.austrade.gov.au/ArticleDocuments/1418/Asean_LNG_Power_Market_Update_Opportunities_2019.pdf.aspx,https://www.vir.com.vn/gulf-group-signs-research-agreement-for-lng-ca-na-gas-power-project-71768.html,12/21/2020
147,Cai Lan,Oil,Operational,39.0,,,,,,,,Vietnam,Quảng Ninh,Hạ Long,Haiphong Delta-Song Ba Cho,20.9861,107.03,,,World Resources Institute,http://www.evn.com.vn/userfile/files/2017/3/AnnualReport2016.pdf,,
148,Cam An Bắc (Nhà máy điện mặt trời xã Cam An Bắc),Solar,Planned,35.0,2019.0,Vietnam,Cam Lâm Solar (Cty CP Cam Lâm Solar),,,,,Vietnam,Khánh Hòa,Cam Lâm,Coastal Tributaries Khanh Hoa-Ninh Thuan,11.98112,109.1276,"Actual location unknown, currently sited at locality in link/announcement",,EVN,,,
149,Cam An Bắc (Nhà máy điện mặt trời xã Cam An Bắc),Solar,Planned,50.0,2019.0,Vietnam,Cam Lâm Solar (Cty CP Cam Lâm Solar),,,,,Vietnam,Khánh Hòa,Cam Lâm,Coastal Tributaries Khanh Hoa-Ninh Thuan,11.98112,109.1276,"Actual location unknown, currently sited at locality in link/announcement",,EVN,,,
150,Cam Hoa (Điện mặt trời Cẩm Hòa),Solar,Operational,50.0,2019.0,Vietnam,Công ty CP Tập đoàn Hoành Sơn Hà Tĩnh,,,Germany; Spain,Equipment: Công ty Eab New Energy (Germany) cung cấp thiết bị và Công ty TNHH Tư vấn điện Solakey (Spain),Vietnam,Hà Tĩnh,Cẩm Xuyên,"Vietnam Coastal Rivers Ha Tinh, Quang Binh",18.32757,106.0162,"Actual location unknown, currently sited at locality in link/announcement",,Wikipedia,https://vi.wikipedia.org/wiki/%C4%90i%E1%BB%87n_m%E1%BA%B7t_tr%E1%BB%9Di_C%E1%BA%A9m_H%C3%B2a,http://nangluongvietnam.vn/news/vn/dien-hat-nhan-nang-luong-tai-tao/khanh-thanh-nha-may-dien-mat-troi-dau-tien-cua-ha-tinh.html,
151,Cam Hung (Điện mặt trời Cẩm Hưng),Solar,Planned,29.0,2020.0,,,,,,,Vietnam,Hà Tĩnh,Cẩm Xuyên,"Vietnam Coastal Rivers Ha Tinh, Quang Binh",18.22354,106.0214,"Actual location unknown, currently sited at locality in link/announcement",,Wikipedia,http://socongthuong.hatinh.gov.vn/index.php/bo-cong-thuong-bo-sung-quy-hoach-2-nha-may-dien-mat-troi-tai-ha-tinh/n92.html,,
152,Cam Lam Solar (Nhà máy điện mặt trời Cam Lâm),Solar,Planned,50.0,2019.0,Vietnam,Cam Lâm Solar (Cty CP Cam Lâm Solar),,,,,Vietnam,Khánh Hòa,Cam Lâm,Coastal Tributaries Khanh Hoa-Ninh Thuan,11.98112,109.1276,,,Stimson database,http://baovanhoa.vn/kinh-te/doanh-nghiep/artmid/591/articleid/18409/suc-hut-dien-mat-troi-tai-khanh-hoa,,
153,Cam Pha Phase 1-2 (Nhiệt điện Cẩm Phả Giai đoạn I-II),Coal,Operational,680.0,2011.0,Vietnam,Vinacomin and Cẩm Phả Thermal-power Joint-Stock Company,China,China Exim Bank,China,The Haerbin Power Project Co. Ltd.,Vietnam,Quảng Ninh,Cẩm Phả,Haiphong Delta-Song Ba Cho,21.00817,107.3581,,,Sourcewatch,https://www.sourcewatch.org/index.php/Cam_Pha_power_station; https://www.gem.wiki/Cam_Pha_power_station,,03/29/2021
154,Cam Pha Phase 3-4 (Nhiệt điện Cẩm Phả Giai đoạn III),Coal,Cancelled,440.0,2020.0,Vietnam,Vinacomin and Cẩm Phả Thermal-power Joint-Stock Company,China,China Exim Bank,China,Haerbin Power Project Co. Ltd  (China),Vietnam,Quảng Ninh,Cẩm Phả,Haiphong Delta-Song Ba Cho,21.00817,107.3581,,,Sourcewatch,https://www.sourcewatch.org/index.php/Cam_Pha_power_station,,
155,Cam Son,Hydro,Operational,4.5,1973.0,Vietnam,Cam Son Hydro Power JSC,,,,,Vietnam,Lạng Sơn,Hữu Lũng,Song Cau-Song Thuong-Song Luc Nam,21.5438,106.5105,,,Open Development Vietnam,https://data.opendevelopmentmekong.net/vi/library_record/cam-son-Hydropower,,
156,Can Don,Hydro,Operational,76.0,2004.0,Vietnam,"Song Da Group, EVN",,,,,Vietnam,Bình Phước,Bù Đốp,Dong Nai,11.96861,106.8425,,,Wikipedia,https://data.opendevelopmentmekong.net/vi/library_record/can-don-Hydropower,,
157,Can Tho,Oil,Operational,185.0,,Vietnam,Vietnam Electricity ,,,,,Vietnam,Cần Thơ,Bình Thuỷ,Vietnam Mekong Delta,10.1,105.72,,,World Resources Institute,http://www.evn.com.vn/userfile/files/2017/3/AnnualReport2016.pdf,,
158,Cao Ngan Thermal Power plant (Nhiệt điện Cao Ngạn),Coal,Operational,115.0,2007.0,Vietnam,EVN (Vietnam),China,China Exim (China),,,Vietnam,Thái Nguyên,Thái Nguyên,Song Cau-Song Thuong-Song Luc Nam,21.61243,105.8146,,,Boston University,https://www.powerengineeringint.com/articles/print/volume-12/issue-1/features/coal-fired-power-plants-cao-ngan-sets-the-standard.html; http://vccinews.com/news_detail.asp?news_id=21572,,
159,Cargill Siam Borabu,Waste,Unknown,2.728,,Thailand,Cargill Siam Ltd.,,,,,Thailand,Maha Sarakham,Borabu,Mun-Chi,15.99242,103.1153,,,UNFCCC,Biogas from wastewater from tapioca starch,https://cdm.unfccc.int/Projects/DB/SGS-UKL1244562449.1/view,
160,Cassava Waste to Energy Project,Biomass,Unknown,0.22,2009.0,Thailand; Japan,"Cassava Waste to Energy Co., Ltd., Toyota Tsusho Corporation, Tokyo Electric Power Co. Inc.",,,,,Thailand,Kalasin,Muang Kalasin,Mun-Chi,16.48384,103.5565,,,UNFCCC,Cassava root,https://cdm.unfccc.int/Projects/DB/TUEV-SUED1218551520.16/view,
161,Cat Hiep (Điện mặt trời Cát Hiệp),Solar,Operational,49.5,2018.0,France; Vietnam,Quadran International (France) Công ty CP năng lượng và công nghệ cao Bình Định (Vietnam),,,Germany,Juwi Renewable Energies (Germany),Vietnam,Bình Định,Phù Cát,Kon,14.01789,109.0176,"Actual location unknown, currently sited at locality in link/announcement",70000,Wikipedia,https://vi.wikipedia.org/wiki/%C4%90i%E1%BB%87n_m%E1%BA%B7t_tr%E1%BB%9Di_C%C3%A1t_Hi%E1%BB%87p,https://baodautu.vn/khoi-cong-du-an-dien-mat-troi-thu-2-tai-binh-dinh-d90256.html,
162,Chachoengsao Solar Power Plant,Solar,Operational,1.3,,Thailand,"Bangkok Solar Power Company, Ltd.",,,,,Thailand,Chachoengsao,Ban Pho,Chao Phraya-Ping,13.5758,101.003,,1733.751,World Resources Institute,http://www.bangkoksolarpower.com/en/reference_project,,
163,"Chaimongkol Refined Sugar Co., Ltd.",Biomass,Unknown,7.0,,,,,,,,Thailand,Buri Ram,Muang Buri Ram,Mun-Chi,14.76608,102.9575,"Actual location unknown, currently sited at locality in link/announcement",,EGAT PDP,Bagasse,http://www.egat.co.th/en/images/about-egat/PDP2015_Eng.pdf,
164,Chaiyaphum Wind Farm,Wind,Operational,80.0,2015.0,Thailand,EGAT (Thailand),,,,,Thailand,Chaiyaphum,Bamnet Narong,Mun-Chi,15.55472,101.57,,,Wikipedia,https://www.egco.com/en/news-update/2016/egco-group-starts-commercial-operation-of-its-latest-chaiyaphum-wind-farm,,
165,Chana,Gas,Operational,1476.0,2014.0,Thailand,EGAT (Thailand),,,,,Thailand,Songkhla,Chana,Coastal Tributaries Songkhla-Yala,6.956103,100.7056,,,Wikipedia,https://www.egat.co.th/en/index.php?option=com_content&view=article&id=43&Itemid=117,,
166,Chang Raek Biomass Power Plant,Biomass,Unknown,9.5,2013.0,Thailand; Germany,"Chang Raek Biopower Co., Ltd. (TPC Power Holding PLC is holding company, EnBW Kraftwerke AG is shareholder)",,,,,Thailand,Nakhon Si Thammarat,Thung Song,Ta Pi,8.221572,99.57468,,,UNFCCC,Rubber wood residue,https://cdm.unfccc.int/Projects/DB/DNV-CUK1345714711.73/view,
167,Chantaburi Starch Wastewater Treatment,Waste,Unknown,1.9,,Thailand,"Chantaburi Starch Power Co., Ltd.",,,Switzerland,South Pole Carbon Asset Management Ltd.,Thailand,Chanthaburi,Soydow,Steng Mongkol Borei-Battambang,13.10059,102.3147,,,UNFCCC,Biogas from wastewater from tapioca starch,https://cdm.unfccc.int/Projects/DB/TUEV-RHEIN1306836884.36/view,
168,Chao Khun Agro Biogas Energy Project,Waste,Unknown,,,Thailand,Thai Biogas Energy Co. Ltd.,,,United Kingdom,EcoSecurities Group plc.,Thailand,Saraburi,Kaeng Khoi,Pasak,14.5998,101.0115,,,UNFCCC,Biogas from wastewater treatment from cassava plant,https://cdm.unfccc.int/Projects/DB/DNV-CUK1218616482.16/view,
169,Chao Phraya Dam,Hydro,Operational,12.0,,Thailand,EGAT (Thailand),,,,,Thailand,Chai Nat,Sanphaya,Chao Phraya-Ping,15.15806,100.18,,,Wikipedia,https://www.egat.co.th/en/information/power-plants-and-dams?view=article&id=479; https://cdm.unfccc.int/Projects/DB/RWTUV1355821731.47/view,,
170,Chaungthar,Wind,Planned,30.0,,China,China Three Gorges Corporation,,,China,China Three Gorges Corporation,Myanmar,Ayeyarwady,Bassein,Irrawaddy Mainstem and Delta,16.93343,94.50323,"Actual location unknown, currently sited at locality in link/announcement",,Myanmar Institute for Peace and Security,https://www.mmtimes.com/business/19343-moep-signs-first-wind-power-deal.html; https://www.mmtimes.com/news/govt-announces-project-bank-get-myanmar-building.html; https://www.jsbmarketresearch.com/company-profile/moep-chaungtha-wind-farm-30-mw-myanmar-pro,,
171,Chi Khe,Hydro,Operational,41.0,2020.0,Vietnam,Chi Khe Hydropower JSC,,,Austria,Andritz (Austria),Vietnam,Nghệ An,Con Cuông,Song Ca,19.08722,104.8022,,,Vietnam Electricity,https://truyenhinhnghean.vn/doi-song-xa-hoi/202010/thong-bao-ve-viec-van-hanh-dieu-tiet-ho-chua-nha-may-thuy-dien-chi-khe-con-cuong-2555ff8/,https://en.evn.com.vn/userfile/User/huongbtt/files/2018/1/Quyetinh95CUCDTDL2017.pdf,12/21/2020
172,Chiang Rai Power Stations,Biomass,Cancelled,1.0,,,,,,Thailand; USA,"CH Karnchang (Thailand)
 ASSYCE Asia (Thailand)
 Sonnedix (USA)",Thailand,Chiang Rai,Wiang Chai,Nam Mae Ing,19.85,99.99,"Actual location unknown, currently sited at locality in link/announcement",,Wikipedia,,"http://www.aksuinn.com/mvdh/54846.html
 http://assyceasia.com/
 http://www.ch-karnchang.co.th/en/
 https://sonnedix.com/",
173,Chiang Rai Solar Park,Solar,Operational,9.0,2012.0,Thailand,"Chiang Rai Solar Company, Ltd.",,,Thailand; Italy,"Ch. Karnchang (Thailand), Sonnedix (Italy), Assyce Fotovoltaica (Thailand)",Thailand,Chiang Rai,Mae Chan,Kok,20.16842,100.0202,,,UNFCC,"https://cdm.unfccc.int/Projects/DB/DNV-CUK1347251096.48/view, http://www.ch-karnchang.co.th/en/#/project/detail/75/energy-engineering-procurement-and-construction-contract-for-chiangrai-solar-8-mw-ac-solar-photovoltaic-power-park-solar-power-generating-a",,
174,Chiem Hoa,Hydro,Operational,48.0,2017.0,Vietnam,EVN (Vietnam),,,,,Vietnam,Tuyên Quang,Chiêm Hóa,Song Lo-Nga Tao,22.19806,105.3292,,,Vietnam Electricity,https://www.talkvietnam.com/tag/chiem-hoa-Hydro-electric-power-plant/,,
175,Chieng Cong 1,Hydro,Operational,4.0,,Vietnam,Lam Son Construction & Trading Co. Ltd,,,,,Vietnam,Sơn La,Mường La,Black-Li Xian,21.4707,104.1852,,,Open Development Vietnam,https://vietnam.opendevelopmentmekong.net/dataset/?id=danh-sach-cac-th-y-di-n-t-i-vi-t-nam-tinh-d-n-thang-06-2016&search_query=P3BhZ2U9Mg==,,
176,Chieng Cong 2,Hydro,Operational,8.0,,Vietnam,Lam Son Construction & Trading Co. Ltd,,,,,Vietnam,Sơn La,Mường La,Black-Li Xian,21.4572,104.2104,,,Open Development Vietnam,https://vietnam.opendevelopmentmekong.net/dataset/?id=danh-sach-cac-th-y-di-n-t-i-vi-t-nam-tinh-d-n-thang-06-2016&search_query=P3BhZ2U9Mg==,,
177,Chipwi,Hydro,Postponed,3400.0,,China,State Power Investment Corporation (China),,,China,China Power Investment Corporation (CPI) (China),Myanmar,Kachin,Myitkyina,N'mai,25.95054,98.15038,,17770000,Myanmar Institute for Peace and Security,https://www.ifc.org/wps/wcm/connect/3f136d35-74fe-4601-90f8-4a03c4d22a2b/Chapter+2_SEA+Baseline+Assessment_Hydropower.pdf?MOD=AJPERES; https://www.ifc.org/wps/wcm/connect/07b1eba5-9c63-4f7c-8674-d463732a0395/Copy+of+18+02+07+MYA+SEA+HP+Database+WB-IFC.xl; http://www.uachc.com/ucan/node/241.aspx,,03/31/2021
178,Chipwi Nge,Hydro,Operational,99.0,2013.0,China,State Power Investment Corporation,,,China; Myanmar,"Upstream Ayeyawady Confluence Basin Hydropower Co., Ltd (ACHC)",Myanmar,Kachin,Myitkyina,N'mai,25.76327,98.22887,,599000,Myanmar Institute for Peace and Security,https://www.facebook.com/ChinaSPIC/posts/chipwi-nge-hydropower-station-built-by-spics-myanmar-subsidiary-has-been-supplyi/272872526522284/; https://www.ifc.org/wps/wcm/connect/07b1eba5-9c63-4f7c-8674-d463732a0395/Copy+of+18+02+07+MYA+SEA+HP+Database+WB-I; http://www.uachc.com/ucan/node/239.aspx,,03/31/2021
179,Chok Chai Power Station,Biomass,Operational,9.9,2013.0,Thailand,"Advance Agro Power Plant Co., Ltd.",,,,,Thailand,Nakhon Ratchasima,Chok Chai,Mun-Chi,14.75944,102.2022,,,Absolute Clean Energy,,https://www.ace-energy.co.th/en/our-business/projects/biomass-power-plant-projects/25/chok-chai-power-plant,
180,Chokhchai Green Power Project,Biomass,Unknown,36.0,,Thailand; Denmark,"CCGP Chokchai Greenpower, DP Cleantech",,,,,Thailand,Nakhon Ratchasima,Chok Chai,Mun-Chi,14.7705,102.2017,"Actual location unknown, currently sited at locality in link/announcement",,DP CleanTech,Napier grass,https://www.dpcleantech.com/biomass-power-plant-projects/chokhchai-greenpower-nakhon-ratchasima-thailand,
181,Chongdan Solar Power Plant,Solar,Operational,8.0,,Australia,SSE-PV1 Project (Thailand),,,,,Thailand,Kanchanaburi,Bo Phloi,Huai Lam Ta Phoen,14.3552,99.4692,,10669.23,World Resources Institute,http://www.thaisolarenergy.com/project.php?menu=future_projects,,
182,Chulabhorn Dam,Hydro,Operational,40.0,1972.0,Thailand,EGAT (Thailand),,,China,Power Construction Corporation of China (China),Thailand,Chaiyaphum,Khon San,Mun-Chi,16.53611,101.65,,,wikipedia,"http://www.powerchina.cn/art/2015/4/30/art_23_109309.html
http://finance.sina.com.cn/chanjing/gsnews/20150514/112622179732.shtml",,
183,Chulabhorn Downstream Hydropower Project,Hydro,Under Construction,1.25,2018.0,Thailand,EGAT (Thailand),,,,,Thailand,Chaiyaphum,Khon San,Mun-Chi,16.53627,101.65,,,Electricity Generating Authority of Thailand,,,
184,Chumphon power stations,Biomass,Operational,,,,,,,,,Thailand,Chumphon,Sawi,Nam Sawi,10.35,99.06,"Actual location unknown, currently sited at locality in link/announcement",,Wikipedia,,,
185,Chumphon Solar Power Plant,Solar,Operational,1.0,,Thailand,Thai Solar Energy Public Company Limited (TSE),,,,,Thailand,Chumphon,Muang Chumphon,Phanang Tak,10.5032,99.1452,,1333.654,World Resources Institute,http://www.thaisolarenergy.com/project.php?menu=future_projects,,
186,Chumporn applied biogas technology for advanced waste water management,Waste,Unknown,,,Thailand,Chumporn Palm Oil Public Co. Ltd.,,,Germany,Deutsche Gesellschaft fur Internationale Zusammenarbeit,Thailand,Chumphon,Pathiu,Coastal Rivers Prachuap Khiri Khan-Chumphon,10.77534,99.35445,,,UNFCCC,Biogas from wastewater from palm oil production,https://cdm.unfccc.int/Projects/DB/TUEV-SUED1218620986.14/view,
187,Clean Energy One Biomass Power Plant Project,Biomass,Unknown,9.4,,Thailand; Switzerland,Clean Energy Thapsakae Ltd.; Swiss Carbon Assets Ltd.,,,,,Thailand,Prachuap Khiri Khan,Thap Sakae,Coastal Rivers Prachuap Khiri Khan-Chumphon,11.60472,99.64972,,,UNFCCC,Coconut residue (fiber and fronds),https://cdm.unfccc.int/Projects/DB/SQS1333446298.96/view,
188,CMX Renewable Energy Vietnam (Nhà máy điện mặt trời CMX),Solar,Operational,168.0,2019.0,Singapore; Canada,"Sunseap, InfraCo Asia, CMX Renewable Energy Canada",,,,,Vietnam,Ninh Thuận,Ninh Sơn,Song Cai Phan Rang,11.67833,108.8639,"Actual location unknown, currently sited at locality in link/announcement",,Stimson database,"The solar farm will be the largest in the country to-date
https://www.pv-magazine.com/press-releases/sunseap-receives-approval-for-us150-million-solar-farm-largest-in-vietnam/ https://www.pv-tech.org/news/sunseap-jv-gets-green-light-for-168mw-solar-proje",http://nangluongsachvietnam.vn/d6/vi-VN/news/Du-an-dien-mat-troi-lon-nhat-Viet-Nam-di-vao-hoat-dong-truoc-ke-hoach--6-165-4280,
189,Coc Ly,Hydro,Operational,90.0,2012.0,Vietnam,Bac Ha Hydropower Company,,,,,Vietnam,Lai Châu,Nậm Nhùn,Black-Li Xian,22.2985,103.1613,,378000,Open Development Vietnam,https://data.opendevelopmentmekong.net/vi/library_record/coc-ly-Hydropower,,
190,Coc San,Hydro,Operational,30.0,2016.0,Vietnam,Colben Energy JSC.,,,,,Vietnam,Lào Cai,Sa Pa,Red Mainstem and Delta,22.4144,103.9066,,120000,Open Development Vietnam,https://data.opendevelopmentmekong.net/vi/library_record/coc-san-Hydropower,,
191,Colben Energy Phnom Penh,Oil,Operational,20.0,2006.0,Singapore,Asiatic Group (Holdings) Ltd.,,,,,Cambodia,Phnom Penh,Ruessei Kaev,Mekong Mainstrem - Lower Tonle Sap,11.6095533560347,104.908383959993,,,Sponsor Website,,https://www.asiatic.com.sg/our-businesses/energy/phnom-penh-power-plant.html,05/19/2021
192,Conergy Suphanburi Solar Plant,Solar,Operational,11.0,2014.0,Germany,Conergy Group (Germany),,,,,Thailand,Kanchanaburi,Bo Phloi,Huai Lam Ta Phoen,14.25738,99.47127,"Actual location unknown, currently sited at locality in link/announcement",,World Bank,,,
193,Cong Hai (nhà máy điện gió Công Hải 1),Wind,Unknown,25.0,,Vietnam,"Công ty Công nghiệp Sài Gòn, Tổng Công ty Phát điện 2 và Công ty CP Kinh doanh điện lực TPHCM (Vietnam)",,,,,Vietnam,Ninh Thuận,Thuận Bắc,Coastal Tributaries Khanh Hoa-Ninh Thuan,11.80446,109.18,"Actual location unknown, currently sited at locality in link/announcement",,EVN,,,
194,Cong Ly Soc Trang 1 (Điện gió Công Lý Sóc Trăng),Wind,Under Construction,30.0,2019.0,Vietnam,Công ty cổ phần Super Wind Energy Công Lý Sóc Trăng (Vietnam),,,,,Vietnam,Sóc Trăng,Vĩnh Châu,Vietnam Mekong Delta,9.283664,105.8433,"Actual location unknown, currently sited at locality in link/announcement",,Wikipedia,https://vietnamnews.vn/economy/422281/first-wind-power-plant-in-soc-trang-launched.html#uFMxXTS6od8k1Kmp.97,,
195,Cong Ly Soc Trang 2 (Điện gió Công Lý Sóc Trăng),Wind,Under Construction,30.0,2019.0,Vietnam,Công ty cổ phần Super Wind Energy Công Lý Sóc Trăng (Vietnam),,,,,Vietnam,Sóc Trăng,Vĩnh Châu,Vietnam Mekong Delta,9.283664,105.8433,"Actual location unknown, currently sited at locality in link/announcement",,Wikipedia,https://vi.wikipedia.org/wiki/%C4%90i%E1%BB%87n_gi%C3%B3_C%C3%B4ng_L%C3%BD_S%C3%B3c_Tr%C4%83ng,,
196,Cong Ly Soc Trang 3 (Điện gió Công Lý Sóc Trăng),Wind,Under Construction,38.0,2019.0,Vietnam,Công ty cổ phần Super Wind Energy Công Lý Sóc Trăng (Vietnam),,,,,Vietnam,Sóc Trăng,Vĩnh Châu,Vietnam Mekong Delta,9.283664,105.8433,"Actual location unknown, currently sited at locality in link/announcement",,Wikipedia,,,
197,Cong thanh Power Station (Nhiệt điện Công Thanh),Coal,Planned,600.0,2024.0,Vietnam,Cong Thanh Group (Vietnam),Vietnam,Commercial Bank of Vietnam & Bank for Foreign Trade (Vietnam),,,Vietnam,Thanh Hóa,Tĩnh Gia,"Vietnam Coastal Rivers Thanh Hoa, Nghe An",19.35429,105.7673,,,Sourcewatch,https://www.sourcewatch.org/index.php/Cong_Thanh_power_station,,
198,Cu Jut Solar Plant (Nhà máy điện mặt trời Cư Jút),Solar,Operational,50.0,2019.0,Vietnam,CTCP Thủy Điện Miền Trung,,,,,Vietnam,Đắk Nông,Cư Jút,Srepok,12.60748,107.9264,,94710,Dan Toc Mien Nui,https://dantocmiennui.vn/doi-song/dak-nong-phat-trien-du-an-dien-mat-troi/236818.html; https://nld.com.vn/kinh-te/nha-may-dien-mat-troi-cu-jut-chinh-thuc-phat-dien-thuong-mai-20190421214630566.htm,,
199,Cua Dat,Hydro,Operational,97.0,2010.0,Vietnam,Thac Mo Hydropower JSC (Vietnam); Vinaconex P&C JSC,,,,,Vietnam,Thanh Hóa,Thường Xuân,Nam Sam (Laos) - Chu (Vietnam),19.88667,105.2747,,,Vietnam Electricity,https://en.evn.com.vn/userfile/User/huongbtt/files/2018/1/Quyetinh95CUCDTDL2017.pdf,,
200,CUP-1,Gas,Operational,226.0,2006.0,Thailand,GPSC (Global Power Synergy Corp),,,,,Thailand,Rayong,Muang Rayong,Coastal Rivers Rayong Chon Buri,12.7014,101.1258,,933446.6,Sponsor Website,,https://www.gpscgroup.com/en/business/project/8/central-utility-plant-1-cup-1,12/28/2020
201,CUP-2,Gas,Operational,113.0,2008.0,Thailand,GPSC (Global Power Synergy Corp),,,,,Thailand,Rayong,Muang Rayong,Coastal Rivers Rayong Chon Buri,12.7547,101.1637,,466723.3,Sponsor Website,,https://www.gpscgroup.com/en/business/project/153/central-utility-plant-2-cup-2,12/28/2020
202,CYY Biopower Wastewater treatment plant,Waste,Unknown,2.72,,Thailand,CYY Biopower Co. Ltd.,,,Switzerland; Austria,South Pole Carbon Asset Management Ltd (Switzerland)' Kommunalkredit Public Consulting GmbH (Austria),Thailand,Nakhon Ratchasima,Kham Thala So,Mun-Chi,14.99861,101.9117,,,UNFCCC,Biogas from wastewater,https://cdm.unfccc.int/Projects/DB/RWTUV1218617500.62/view,
203,Da Dang 2,Hydro,Operational,34.0,2010.0,Vietnam,Southern Hydropower JSC (Vietnam),,,,,Vietnam,Lâm Đồng,Lâm Hà,Dong Nai,11.72444,108.2469,,,Vietnam Electricity,https://en.evn.com.vn/userfile/User/huongbtt/files/2018/1/Quyetinh95CUCDTDL2017.pdf; https://data.opendevelopmentmekong.net/vi/library_record/da-dang-2-Hydropower,,
204,Da Kai,Hydro,Operational,6.0,,Vietnam,Nghia Gia Development Company Limited,,,,,Vietnam,Lâm Đồng,Lạc Dương,Dong Nai,12.0838,108.5953,,25000,Open Development Vietnam,https://data.opendevelopmentmekong.net/vi/library_record/da-kai-Hydropower,,
205,Da Mi 1 (Nhà máy điện mặt trời nổi hồ Đa Mi),Solar,Operational,47.5,2020.0,Vietnam,DHD (Công ty Cổ phần Thủy điện Đa Nhim - Hàm Thuận - Đa Mi (EVN - Phát Điện 1 subsidiary)),,,,,Vietnam,Bình Thuận,Tánh Linh,Dong Nai,11.25119,107.8372,,70000,Sponsor Website,https://www.evn.com.vn/d6/news/Nha-may-Dien-mat-troi-noi-ho-Da-Mi-hoa-luoi-thanh-cong-141-17-23656.aspx,,
206,Da Nhim Thuong 2,Hydro,Operational,7.5,2010.0,Vietnam,Thai Bao Production Trading Services and Investment Consultancy JSC.,,,,,Vietnam,Lâm Đồng,Lạc Dương,Dong Nai,12.1161,108.5852,,32000,Open Development Vietnam,https://data.opendevelopmentmekong.net/vi/library_record/da-nhim-thuong-Hydropower,,
207,Dac Me,Hydro,Operational,5.0,2011.0,Vietnam,Dak Me Hydro Power JSC.,,,,,Vietnam,Lâm Đồng,Đam Rông,Srepok,12.1333,108.313,,25000,Open Development Vietnam,https://data.opendevelopmentmekong.net/vi/library_record/dac-me-Hydropower,,
208,Dachaoshan,Hydro,Operational,1250.0,2003.0,China,Yunnan Dachaoshan Hydropower Company Ltd,China,,China,China Huaneng Group; PowerChina,China,Yunnan,Lincang,Mekong Mainstem - China,24.02664,100.3687,,,RCC Dams,,http://www.chinawater.net.cn/icold2000/st-a5-01.html,
209,Dachunhe,Hydro,Operational,30.0,2011.0,China,,China,,China,,China,Yunnan,Yuxi,Red Mainstem and Delta,24.17436,101.5235,,,Global Power Plants Database,,https://baike.baidu.com/item/%E5%A4%A7%E6%98%A5%E6%B2%B3%E6%A2%AF%E7%BA%A7%E6%B0%B4%E7%94%B5%E7%AB%99/4434806#3,
210,Dachunhe 2,Hydro,Operational,20.0,2012.0,China,,China,,China,,China,Yunnan,Yuxi,Red Mainstem and Delta,24.17001,101.5246,,,Global Power Plants Database,,https://baike.baidu.com/item/%E5%A4%A7%E6%98%A5%E6%B2%B3%E6%A2%AF%E7%BA%A7%E6%B0%B4%E7%94%B5%E7%AB%99/4434806#4,
211,Dahuaqiao,Hydro,Operational,900.0,2018.0,China,‎Huaneng Lancang Hydropower Co Ltd,China,,China,China Huaneng Group; PowerChina,China,Yunnan,Nujiang Lisu,Mekong Mainstem - China,26.30841,99.13901,,,RCC Dams,,https://en.wikipedia.org/wiki/Dahuaqiao_Dam,
212,Dai Nga,Hydro,Operational,10.0,2015.0,Vietnam,Thac Mo Hydropower JSC.,,,,,Vietnam,Lâm Đồng,Bảo Lâm,Dong Nai,11.4219,107.8754,,44000,Open Development Vietnam,https://data.opendevelopmentmekong.net/vi/library_record/dai-nga-Hydropower,,
213,Dai Ninh,Hydro,Operational,300.0,2008.0,Vietnam,EVN,Japan,JICA,Japan,"Kajima, Kumagi, Hazama",Vietnam,Lâm Đồng,Đức Trọng,Dong Nai,11.65111,108.3194,,,Wikipedia,https://www.power-technology.com/projects/dai-nanh/; https://data.mendeley.com/datasets/ht9k5p3vdb/1; https://www2.jica.go.jp/yen_loan/pdf/en/5269/20040331-53.pdf,,03/31/2021
214,Dak Doa,Hydro,Operational,14.0,2010.0,Vietnam,Dak Doa Hydropower JSC.,,,,,Vietnam,Gia Lai,Đăk Đoa,Sesan,14.1847,108.1064,,56300,Open Development Vietnam,https://data.opendevelopmentmekong.net/vi/library_record/dak-doa-Hydropower,,
215,Dak Drinh,Hydro,Operational,125.0,2014.0,Vietnam,Dak Drinh Hydropower JSC; PVN (Vietnam),,,,,Vietnam,Quảng Ngãi,Sơn Tây,Song Tra Khuc,14.98,108.3031,,,Vietnam Electricity,https://en.evn.com.vn/userfile/User/huongbtt/files/2018/1/Quyetinh95CUCDTDL2017.pdf; https://data.opendevelopmentmekong.net/vi/library_record/dak-drinh-Hydropower,,
216,Dak E Meule,Hydro,Operational,105.0,2018.0,,,,,,,Laos,Xékong,Lamarm,Sekong,15.55486,107.0716,,,WLE Mekong,https://wle-mekong.cgiar.org,,
217,Dak Glun,Hydro,Operational,18.0,2011.0,Vietnam,Sai Gon Accessories JSC,,,,,Vietnam,Bình Phước,Bù Gia Mập,Dong Nai,12.0252,107.1834,,76000,Open Development Vietnam,https://data.opendevelopmentmekong.net/vi/library_record/dak-glun-Hydropower,,
218,Dak Lay,Hydro,Operational,3.2,2015.0,Vietnam,Dak Lay Hydropower Co. Ltd,,,,,Vietnam,Kon Tum,Tu Mơ Rông,Sesan,14.7979,108.0074,,13000,Open Development Vietnam,https://data.opendevelopmentmekong.net/vi/library_record/dak-lay-Hydropower,,
219,Dak Lo,Hydro,Operational,22.0,2016.0,Vietnam,Dak Lo- Song Da 3 JSC,,,,,Vietnam,Kon Tum,Kon Plông,Song Tra Khuc,14.7275,108.3694,,93200,Open Development Vietnam,https://data.opendevelopmentmekong.net/vi/library_record/dak-lo-Hydropower,,
220,Dak Mi 3 (Nhà máy thủy điện Đăk Mi 3),Hydro,Operational,56.0,2016.0,Vietnam,Vietnam Urban and Industrial Zone Development Investment Corporation (IDICO),Vietnam; Switzerland,Vietnam Bank for Agriculture and Rural Development (Agribank); Ecotawa AG,,,Vietnam,Quảng Nam,Phước Sơn,Song Giang,15.33838,107.8338,,220500,"Vietnam Electricity, UNFCC","https://en.evn.com.vn/userfile/User/huongbtt/files/2018/1/Quyetinh95CUCDTDL2017.pdf
https://cdm.unfccc.int/Projects/DB/SQS1348230197.7/view",,
221,Dak Mi 4 (Nhà máy thủy điện Đăk Mi 4),Hydro,Operational,148.0,2012.0,Vietnam,"IDICO (Vietnam), Bitexco (Vietnam)",Vietnam,Vietnam Bank for Agriculture and Rural Development (Agribank - 56m); Bank for Investment and Development of Vietnam (BIDV - 37m); PetroVietnam Finance Corp. (31m); foreign sources (50m),Vietnam,"IDICO General Construction Contractor, PECC2 (Power Engineering Consulting Company Nº2)",Vietnam,Quảng Nam,Phước Sơn,Song Giang,15.45379,107.8322,,752510,Vietnam Electricity,"https://en.evn.com.vn/userfile/User/huongbtt/files/2018/1/Quyetinh95CUCDTDL2017.pdf
https://cdm.unfccc.int/Projects/DB/SQS1309870743.56/view",,
222,Dak Mi 4c,Hydro,Operational,18.0,2012.0,Vietnam,"IDICO (Vietnam), Bitexco (Vietnam)",,,,,Vietnam,Quảng Nam,Phước Sơn,Song Thu Bon Mainstem,15.4425,107.8922,,69000,Vietnam Electricity,https://en.evn.com.vn/userfile/User/huongbtt/files/2018/1/Quyetinh95CUCDTDL2017.pdf,,
223,Dak Mi-1,Hydro,Cancelled,215.0,,Vietnam,Cavuci Energy Development Investment Co.,,,Vietnam,Quang Duc Kon Tum JSC,Vietnam,Kon Tum,Đắk Glei,Song Giang,15.1831756683395,107.803337743876,,217642,Boston University,,https://data.mendeley.com/datasets/ht9k5p3vdb/1,03/31/2021
224,Dak N'teng,Hydro,Operational,13.0,2011.0,Vietnam,Me Kong Hydro Power Limited Liability Company,,,,,Vietnam,Đắk Nông,Đăk Glong,Srepok,12.1958,107.9268,,53000,Open Development Vietnam,https://data.opendevelopmentmekong.net/vi/library_record/dak-nteng-Hydropower,,
225,Dak Ne,Hydro,Operational,8.1,2010.0,Vietnam,Tan Phat JSC.,,,,,Vietnam,Kon Tum,Kon Rẫy,Sesan,14.5281,108.2191,,60000,Open Development Vietnam,https://data.opendevelopmentmekong.net/vi/library_record/dak-ne-Hydropower,,
226,Dak Nong 2,Hydro,Operational,16.0,2016.0,Vietnam,Viet Nguyen Construction JSC.,,,,,Vietnam,Đắk Nông,Gia Nghĩa,Dong Nai,11.9645,107.6675,,65000,Open Development Vietnam,https://data.opendevelopmentmekong.net/vi/library_record/dak-nong-2-Hydropower,,
227,Dak Pia,Hydro,Operational,2.2,2012.0,Vietnam,Trung Viet Co. Ltd.,,,,,Vietnam,Kon Tum,Kon Rẫy,Sesan,14.6651,108.1593,,11400,Open Development Vietnam,https://data.opendevelopmentmekong.net/vi/library_record/dak-pia-Hydropower,,
228,Dak Po Ne,Hydro,Operational,15.6,2009.0,Vietnam,PC 3 Investment JSC.,,,,,Vietnam,Kon Tum,Kon Plông,Sesan,14.5759,108.3049,,69100,Open Development Vietnam,https://data.opendevelopmentmekong.net/vi/library_record/dak-po-ne-Hydropower,,
229,Dak Po ne 2,Hydro,Operational,3.6,2008.0,Vietnam,Gia Nghi Co. Ltd,,,,,Vietnam,Kon Tum,Kon Rẫy,Sesan,14.526,108.2992,,15780,Open Development Vietnam,https://data.opendevelopmentmekong.net/vi/library_record/dak-po-ne-2-Hydropower,,
230,Dak Psi 3,Hydro,Operational,15.0,2012.0,Vietnam,Dak Psi Hydro Power Investment and Development JSC,,,,,Vietnam,Kon Tum,Đắk Hà,Sesan,14.6613,107.9367,,60000,Open Development Vietnam,https://data.opendevelopmentmekong.net/vi/library_record/dak-psi-3,,
231,Dak Psi 4,Hydro,Operational,30.0,2010.0,Vietnam,Dak Psi Hydro Power Investment and Development JSC,,,,,Vietnam,Kon Tum,Tu Mơ Rông,Sesan,14.7684,108.0027,,115000,Open Development Vietnam,https://data.opendevelopmentmekong.net/vi/library_record/dak-psi-4-Hydropower,,
232,Dak R'Tih,Hydro,Operational,144.0,2011.0,Vietnam,Construction Corporation No.1 Company Limited,,,,,Vietnam,Đắk Nông,Gia Nghĩa,Dong Nai,11.9902,107.6597,,636800,Open Development Vietnam,https://data.opendevelopmentmekong.net/vi/library_record/dak-rtih-Hydropower,,
233,Dak Ro Sa,Hydro,Operational,7.5,2007.0,Vietnam,Mien Trung Construction Corporation,,,,,Vietnam,Kon Tum,Đắk Tô,Sesan,14.7473,107.8358,,143000,Open Development Vietnam,https://data.opendevelopmentmekong.net/vi/library_record/dak-ro-sa-Hydropower,,
234,Dak Ro Sa 2,Hydro,Operational,2.4,2012.0,Vietnam,Dak Ro Sa Hydropower JSC,,,,,Vietnam,Kon Tum,Đắk Tô,Sesan,14.7135,107.8211,,,Open Development Vietnam,https://data.opendevelopmentmekong.net/vi/library_record/dak-ro-sa-2-Hydropower,,
235,Dak Ru,Hydro,Operational,7.5,2008.0,Vietnam,N&S Limited Liability Company,,,,,Vietnam,Đắk Nông,Tuy Đức,Dong Nai,11.9522,107.4042,,40000,Open Development Vietnam,https://data.opendevelopmentmekong.net/vi/library_record/dak-ru-Hydropower,,
236,Dak Rung 1,Hydro,Operational,6.0,2010.0,Vietnam,"Binh Minh Company, Ltd.",,,,,Vietnam,Đắk Nông,Đắk Song,Dong Nai,12.1139,107.6336,,,Open Development Vietnam,https://data.opendevelopmentmekong.net/vi/library_record/dak-rung-1-Hydropower,,
237,Dak Sin 1,Hydro,Operational,28.0,2015.0,Vietnam,VRG Dak Nong JSC. - Vietnam Rubber Group,,,,,Vietnam,Đắk Nông,Đắk R'Lấp,Dong Nai,11.8186,107.459,,105000,Open Development Vietnam,https://data.opendevelopmentmekong.net/vi/library_record/dak-sin-1-Hydropower,,
238,Dak Srong,Hydro,Operational,18.0,2010.0,Vietnam,Dak Srong JSC.,,,,,Vietnam,Gia Lai,Kông Chro,Song Da Rang-Song Ba,13.7659,108.5236,,68000,Open Development Vietnam,https://vietnam.opendevelopmentmekong.net/dataset/?id=danh-sach-cac-th-y-di-n-t-i-vi-t-nam-tinh-d-n-thang-06-2016&search_query=P3BhZ2U9Mg==,,
239,Dak Srong 2,Hydro,Operational,24.0,2010.0,Vietnam,Hoang Anh Gia Lai JSC.,,,,,Vietnam,Gia Lai,Kông Chro,Song Da Rang-Song Ba,13.6786,108.5649,,85800,Open Development Vietnam,https://data.opendevelopmentmekong.net/vi/library_record/dak-srong-2-Hydropower,,
240,Dak Srong 3A,Hydro,Operational,10.0,2014.0,Vietnam,Hoang Anh Gia Lai JSC.,,,,,Vietnam,Gia Lai,Krông Pa,Song Da Rang-Song Ba,13.3473,108.5323,,37000,Open Development Vietnam,https://data.opendevelopmentmekong.net/vi/library_record/dak-srong-3a-Hydropower,,
241,Dak Srong 3B,Hydro,Operational,20.0,2012.0,Vietnam,Hoang Anh Gia Lai JSC.,,,,,Vietnam,Gia Lai,Krông Pa,Song Da Rang-Song Ba,13.3381,108.5587,,75000,Open Development Vietnam,https://data.opendevelopmentmekong.net/vi/library_record/dak-srong-3b-Hydropower,,
242,Dam Nai (Nhà máy điện gió Đầm Nại),Wind,Operational,40.0,2018.0,Singapore; Vietnam,"The Blue Circle (Singapore), Công ty cổ phần TSV",,,Spain,Siemens Gamesa Renewable Energy (Spain) Công ty Năng lượng Tái tạo Siemens Gamesa,Vietnam,Ninh Thuận,Thuận Bắc,Coastal Tributaries Khanh Hoa-Ninh Thuan,11.66977,109.0586,,110000,Stimson database,"http://www.thebluecircle.sg/dam-nai-wind-project, https://renewablesnow.com/news/blue-circle-gets-nod-for-40-mw-wind-project-in-vietnam-534021/",,
243,Dam'Bri,Hydro,Operational,75.0,2014.0,Vietnam,Southern Hydropower JSC.,,,,,Vietnam,Lâm Đồng,Bảo Lâm,Dong Nai,11.5827,107.6726,,338000,Open Development Vietnam,https://data.opendevelopmentmekong.net/vi/dataset/da-mbri-Hydropower,,
244,Dapein 1 (Dapeyin / Tarpain),Hydro,Operational,240.0,2011.0,China; Myanmar,"MEPE, Datang",China,China EXIM,China,"Datang, United Hydropower Developing Co Ltd",Myanmar,Kachin,Bhamo,Taping,24.42145,97.52545,,1065000,World Bank,http://ens-newswire.com/2011/06/15/fighting-erupts-over-chinese-hydropower-dams-in-burma/; https://www.ifc.org/wps/wcm/connect/07b1eba5-9c63-4f7c-8674-d463732a0395/Copy+of+18+02+07+MYA+SEA+HP+Database+WB-IFC.xlsx?MOD=AJPERES,http://documents1.worldbank.org/curated/en/857971548867615099/pdf/134197-WP-MM-V2-SEA-Baseline-Assessment-Hydropower-PUBLIC.pdf,03/31/2021
245,Dapein 2 (Dapeyin / Tarpain),Hydro,Planned,140.0,2022.0,China; Myanmar,"MoEE, United Hydropower Developing Co.",China,China EXIM,China,Datang,Myanmar,Kachin,Bhamo,Taping,24.36827,97.4214,,642000,World Bank,https://www.ifc.org/wps/wcm/connect/07b1eba5-9c63-4f7c-8674-d463732a0395/Copy+of+18+02+07+MYA+SEA+HP+Database+WB-IFC.xlsx?MOD=AJPERES; https://www.ifc.org/wps/wcm/connect/07b1eba5-9c63-4f7c-8674-d463732a0395/Copy+of+18+02+07+MYA+SEA+HP+; https://reconnectingasia.csis.org/database/projects/dapein-2/ad077a04-a18a-4f63-b24d-bb12b9dbdda2/,http://documents1.worldbank.org/curated/en/857971548867615099/pdf/134197-WP-MM-V2-SEA-Baseline-Assessment-Hydropower-PUBLIC.pdf,03/31/2021
246,Dau Tieng Solar Power Plant 1 (Nhà máy điện mặt trời Dầu Tiếng 1),Solar,Operational,150.0,2019.0,Vietnam; Thailand,Dầu Tiếng Tây Ninh Energy (a JV between B Grimm Power Public CL (Thailand); Xuân Cầu Company Ltd  (Vietnam)(BOT)),,,China,"Sinhydro Corp. Ltd. (EPC), ChinaPower HuaDong Engineering Corp. (EPC); Jinkosolar (supplier) (China)",Vietnam,Tây Ninh,Dương Minh Châu,Song Saigon,11.45169,106.2302,,688000,Heritage Foundation,June 2018; http://taiyangnews.info/business/powerchina-to-install-420-mw-vietnam-project/; http://taiyangnews.info/uncategorized/jinko-modules-for-420-mw-vietnam-project/,https://e.vnexpress.net/news/news/southeast-asia-s-largest-solar-farm-begins-operations-in-southern-vietnam-3979068.html,
247,Dau Tieng Solar Power Plant 2 (Nhà máy điện mặt trời Dầu Tiếng 2),Solar,Operational,200.0,2019.0,Vietnam; Thailand,Dầu Tiếng Tây Ninh Energy (a JV between B Grimm Power Public CL (Thailand); Xuân Cầu Company Ltd  (Vietnam)(BOT)),,,China,"Sinhydro Corp. Ltd. (EPC), ChinaPower HuaDong Engineering Corp. (EPC); Jinkosolar (supplier) (China)",Vietnam,Tây Ninh,Dương Minh Châu,Song Saigon,11.44895,106.2328,,,,,,
248,Dau Tieng Solar Power Plant 3 (Nhà máy điện mặt trời Dầu Tiếng 3),Solar,Planned,150.0,2020.0,Vietnam; Thailand,Dầu Tiếng Tây Ninh Energy (a JV between B Grimm Power Public CL (Thailand); Xuân Cầu Company Ltd  (Vietnam)(BOT)),,,China,"Sinhydro Corp. Ltd. (EPC), ChinaPower HuaDong Engineering Corp. (EPC); Jinkosolar (supplier) (China)",Vietnam,Tây Ninh,Tân Châu,Song Saigon,11.46991,106.2002,,,,,,
249,Dawei,Coal,Cancelled,4000.0,,Thailand,Italian-Thai Development Public Company (Thailand),,,,,Myanmar,Tanintharyi,Dawei,Dawei,14.0833,98.2,"Actual location unknown, currently sited at locality in link/announcement",,Global Energy Monitor,https://www.sourcewatch.org/index.php/Dawei_power_station; https://www.reuters.com/article/myanmar-dawei/myanmar-scraps-coal-fired-power-plant-at-dawei-idUSL3E8CA1ER20120110,,
250,Decha Bio Green Co. Ltd,Biomass,Unknown,7.5,2009.0,Thailand; United Kingdom,"Decha Bio Green Co, Ltd.; EDF Trading Ltd. (EDFT)",,,,,Thailand,Suphan Buri,Bang Pla Ma,Tha Chin,14.29771,100.2264,,,UNFCCC,Rice husk,https://cdm.unfccc.int/Projects/DB/RWTUV1251209528.4/view,
251,Deedoke (Deedote),Hydro,Under Construction,66.0,,Austria; Japan; Myanmar,"Andritz Hydro GmbH, Kansai Electric Power Co., Shwe Taung Group",,,,,Myanmar,Mandalay,Kyaukse,Myitnge,21.68723,96.40446,,,Myanmar Institute for Peace and Security,https://frontiermyanmar.net/en/hydropower-is-back,,
252,Dinh Binh,Hydro,Operational,9.9,2008.0,Vietnam,Dinh Binh Hydropower JSC,,,,,Vietnam,Bình Định,Vĩnh Thạnh,Kon,14.1565,108.7727,,45000,Open Development Vietnam,https://data.opendevelopmentmekong.net/vi/library_record/dinh-binh-Hydropower,,
253,Distributed Commercial Solar Power Project,Solar,Under Construction,100.0,2020.0,,,ADB,ADB,,,Thailand,Suphan Buri,Muang Suphanburi,Tha Chin,14.55819,100.0074,"Actual location unknown, currently sited at locality in link/announcement",,ADB,https://www.adb.org/projects/49366-001/main,,
254,Dlie Ya (Nhà máy điện gió Dlie Ya),Wind,Planned,100.0,2020.0,Vietnam,Consortium of Hung Bac Energy Investment and Thang Long Real Estate Investment (Liên danh Công ty Cổ phần Đầu tư năng lượng Hưng Bắc và Công ty Cổ phần Đầu tư Thương mại và Kinh doanh bất động sản Thăng Long) (Viet,,,,,Vietnam,Đắk Lắk,Krông Năng,Krong Hnang,13.05909,108.3576,"Actual location unknown, currently sited at locality in link/announcement",,Stimson database,https://daklak24h.com.vn/tin-kinh-te/47771/lap-du-an-dien-gio-quy-mo-lon-tai-huyen-krong-nang.html,,
255,Dohwa Le Thuy Renewable Energy Complex (Dự án điện năng lượng tái tạo Dohwa Lệ Thủy),Solar,Operational,49.5,2020.0,South Korea,"Dohwa Green Energy Co., Ltd.",South Korea,"Dohwa Green Energy Co., Ltd.",Vietnam,NSN Construction & JSC,Vietnam,Quảng Bình,Lệ Thủy,Song Ben Hai,17.22861,106.87248,,66003,Stimson database,https://www.pv-magazine.com/2017/09/01/dohwa-breaks-ground-on-49-5-mw-in-vietnam/; https://chp.vn/tap-doan-dohwa-xay-dung-hop-du-dien-nang-luong-tai-tao-ven-bien-nam-quang-binh; https://nsn.vn/2020/12/23/nsn-dong-dien-thanh-cong-du-an-dien-mat-troi-49-5-mwp-quang-binh/,,04/30/2021
256,Don Sahong,Hydro,Operational,260.0,2019.0,Malaysia; Laos,"Mega First 80 PCT, Government of Laos 20 PCT",Malaysia,ERM loan facilities totaling $85 million and an Islamic financing facility of up to $65 million; Public Investment Bank Berhad Malaysia,China,PowerChina/Power Construction Corp (China),Laos,Champasak,Khong,Mekong Mainstream - Lower,13.95622,105.9642,,,"Ministry of Energy and Mines, Lao PDR",https://www.internationalrivers.org/campaigns/don-sahong-dam,"https://www.hydroworld.com/articles/2017/10/loans-totaling-us-150-million-secured-for-260-mw-don-sahong-hydropower-project-in-lao-pdr.html
https://www.hydroworld.com/articles/2015/09/lao-pdr-expects-to-begin-construction-260-mw-don-sahong-hydroelectric-p",
257,Dong Hai (Nhà máy điện gió Đông Hải 1),Wind,Operational,50.0,2019.0,Vietnam,Công ty Cổ phần Năng Lượng Bắc Phương (Vietnam),,,,,Vietnam,Bạc Liêu,Đông Hải,Vietnam Mekong Delta,9.213374,105.5355,"Actual location unknown, currently sited at locality in link/announcement",161000,Sponsor Website,https://nhandan.com.vn/kinhte/item/39864702-khoi-cong-xay-dung-nha-may-dien-gio-dong-hai-1.html,https://bnews.vn/khoi-cong-khu-dieu-hanh-nha-may-dien-gio-dong-hai-1/119621.html,
258,Dong Khon Solar Power Plant,Solar,Operational,7.6,,Thailand,G-Power Source Co Ltd (Thailand),,,,,Thailand,Chai Nat,Sankha Buri,Tha Chin,14.9286,100.1426,,10135.77,World Resources Institute,http://www.egco.com/en/corperate_com_press_detail.asp?press_id=206&iYear=2014,,
259,Dong Nai 2,Hydro,Operational,70.0,2015.0,Vietnam,Trung Nam Group (Vietnam),,,,,Vietnam,Lâm Đồng,Lâm Hà,Dong Nai,11.7129,108.0579,,,"Vietnam Electricity, UNFCC","https://en.evn.com.vn/userfile/User/huongbtt/files/2018/1/Quyetinh95CUCDTDL2017.pdf
https://cdm.unfccc.int/Projects/DB/ERM-CVS1350663746.22/view; https://data.opendevelopmentmekong.net/vi/library_record/dong-nai-2-Hydropower",,
260,Dong Nai 3,Hydro,Operational,180.0,2011.0,Vietnam,EVN,,,Vietnam,Construction Corp No 1,Vietnam,Lâm Đồng,Bảo Lâm,Dong Nai,11.88528,107.7281,,,Vietnam Electricity,https://data.mendeley.com/datasets/ht9k5p3vdb/1,"https://en.evn.com.vn/userfile/User/huongbtt/files/2018/1/Quyetinh95CUCDTDL2017.pdf
https://www.powerinfotoday.com/asia/dong-nai-Hydropower-project-vietnam/
https://en.evn.com.vn/d6/news/Dong-Nai-Hydropower-Company-Successful-in-developing-smart-control-",03/31/2021
261,Dong Nai 4,Hydro,Operational,340.0,2013.0,Vietnam,EVN,Japan,JICA,Vietnam,"Lilama, Cavico",Vietnam,Lâm Đồng,Bảo Lâm,Dong Nai,11.885,107.7286,,,Vietnam Electricity,https://data.mendeley.com/datasets/ht9k5p3vdb/1,https://en.evn.com.vn/userfile/User/huongbtt/files/2018/1/Quyetinh95CUCDTDL2017.pdf,03/31/2021
262,Dong Nai 5,Hydro,Operational,140.0,2015.0,Vietnam,Vinacomin (Vietnam),,,Vietnam,Vinacomin’s Power Holding Corporation (Vietnam),Vietnam,Đắk Nông,Đắk R'Lấp,Dong Nai,11.79417,107.5522,,,Vietnam Electricity,_x0008_,https://en.evn.com.vn/userfile/User/huongbtt/files/2018/1/Quyetinh95CUCDTDL2017.pdf,
263,Dong Nai 5,Hydro,Operational,150.0,2015.0,Vietnam,Vietnam National Coal-Mineral Industries Group,,,,,Vietnam,Đắk Nông,Đắk R'Lấp,Dong Nai,11.79417,107.5522,,,Vietnam Electricity,,,
264,Dong Phu Yen,Hydro,Planned,1200.0,2030.0,Vietnam,Xuan Thanh Group,,,Vietnam; Japan,"EVN, JICA, Xuan Thien Ninh Binh Co., Ltd.",Vietnam,Sơn La,Phù Yên,Black-Li Xian,21.2084553778349,104.618255541933,"Actual location unknown, currently sited at locality in link/announcement",,Boston University,,https://data.mendeley.com/datasets/ht9k5p3vdb/1,03/31/2021
265,Double A Ethanol wastewater treatment plant,Waste,Unknown,,2014.0,Thailand,,ADB,ADB (Asian Development Bank) as Trustee of the Future Carbon Fund,Sweden,Swedish Energy Agency,Thailand,Prachin Buri,Sri Mahar Pho,Chao Phraya-Ping,13.91481,101.5723,,,UNFCCC,Biogas from ethanol wastewater,https://cdm.unfccc.int/Projects/DB/RINA1356766119.2/view,
266,Dray H'Linh 1,Hydro,Operational,12.0,1990.0,Vietnam,,,,,,Vietnam,Đắk Lắk,Buôn Ma Thuột,Srepok,12.6712,107.9075,,,Open Development Vietnam,https://vietnam.opendevelopmentmekong.net/dataset/?id=danh-sach-cac-th-y-di-n-t-i-vi-t-nam-tinh-d-n-thang-06-2016&search_query=P3BhZ2U9Mg==,,
267,Dray H'Linh 2,Hydro,Operational,16.0,2007.0,Vietnam,Dien Luc 3 Hydro Power JSC.,,,,,Vietnam,Đắk Nông,Cư Jút,Srepok,12.6757,107.9041,,80000,Open Development Vietnam,https://cpc.vn/vi-vn/Tin-tuc-su-kien/Tin-tuc-chi-tiet/articleId/21; http://www.thanglong-bca.vn/tin-tuc-su-kien-651/TTC-Duc-Hue-2-Solar-Power/, https://data.opendevelopmentmekong.net/vi/library_record/dray-hlinh-2-Hydropower,12/21/2020
268,Duc An (Nhà máy điện mặt trời Đức An),Solar,Planned,30.0,2020.0,Vietnam,Sở Kế hoạch và Đầu tư tỉnh Đắk Nông,,,,,Vietnam,Đắk Nông,Đắk Song,Dong Nai,12.2483,107.6138,"Actual location unknown, currently sited at locality in link/announcement",,EVN,http://www.tietkiemnangluong.vn/d6/news/Dak-Nong-keu-goi-dau-tu-du-an-Nha-may-Dien-mat-troi-Duc-An-111-136-12692.aspx,,
269,Duc Giang - Lao Cai Chemical Power Station (Nhiệt điện hóa chất Đức Giang - Lào Cai),Coal,Under Construction,100.0,2021.0,Vietnam,Duc Giang - Lao Cai Chemicals Joint Stock Company (Vietnam),Vietnam,Vietcombank,,,Vietnam,Lào Cai,Bảo Thắng,Red Mainstem and Delta,22.30574,104.1445,,720000,Global Energy Network,_x0008_,https://www.gem.wiki/Duc_Giang_-_Lao_Cai_Chemicals_power_station,03/26/2021
270,Duc Hue 1 (Điện mặt trời TTC Đức Huệ 1),Solar,Operational,49.0,2019.0,Vietnam; Japan; Thailand,"Consortium: 1) TTC (Vietnam), 2) Sharp Energy Solutions (Japan), 3) Sharp Solar Solutions (Thailand)",,,Vietnam,Hawee Industrial Construction Joint Stock Company (Hawee Group IDC),Vietnam,Long An,Đức Huệ,Song Vam Ca Tay,10.9198,106.2659,,,Sponsor Website,https://vi.wikipedia.org/wiki/%C4%90i%E1%BB%87n_m%E1%BA%B7t_tr%E1%BB%9Di_%C4%90%E1%BB%A9c_Hu%E1%BB%87,,
271,Duc Hue 2 (Điện mặt trời TTC Đức Huệ 2),Solar,Under Construction,49.0,2019.0,Vietnam,"Gia Lai Hydropower (Vietnam), TTC Duc Hue Long An Joint Stock Company (Vietnam)",,,Japan,Sharp Energy Solutions SESJ,Vietnam,Long An,Đức Huệ,Song Vam Ca Tay,10.9173,106.2578,,72820,Stimson database,"http://www.worldconstructionnetwork.com/news/sharp-to-construct-two-mega-solar-plants-in-vietnam, https://static1.vietstock.vn/vietstock/2019/GEG_NQ%20HDQT%20SO%2001.2019.KS.pdf",,
272,Duc Xuyen (nhà máy Điện gió Đức Xuyên),Wind,Under Construction,,2020.0,Vietnam,,,,,,Vietnam,Đắk Nông,Krông Nô,Srepok,12.29377,107.8698,"Actual location unknown, currently sited at locality in link/announcement",,EVN,http://tietkiemnangluong.vn/d6/news/Trung-Nam-trien-khai-du-an-dien-mat-troi-tich-hop-tren-trang-trai-dien-gio-115-109-10408.aspx,,
273,Dung Quat BOT 2 (Nhà máy điện BOT Dung Quất II) (TTĐL) Dung Quất,Gas,Planned,750.0,2024.0,Singapore,Sembcorp Utilities Singapore,,,,,Vietnam,Quảng Ngãi,Bình Sơn,Vietnam Coastal Rivers Quang Nam,15.36306,108.8114,"Actual location unknown, currently sited at locality in link/announcement",4000000,EVN,https://www.sourcewatch.org/index.php/Dung_Quat_Economic_Zone_power_station_(J-Power); http://nangluongvietnam.vn/news/vn/dien-luc-viet-nam/tinh-hinh-thuc-hien-cac-du-an-dien-theo-hinh-thuc-bot-o-viet-nam.html,,03/30/2021
274,Dung Quat TTĐL 1 (Trung tâm khí điện miền Trung - địa điểm Trung tâm Điện lực (TTĐL) Dung Quất,Gas,Planned,750.0,2023.0,Vietnam,EVN,Japan,J-Power (Japan),,,Vietnam,Quảng Ngãi,Bình Sơn,Vietnam Coastal Rivers Quang Nam,15.36306,108.8114,"Actual location unknown, currently sited at locality in link/announcement",4000000,EVN,https://www.sourcewatch.org/index.php/Dung_Quat_Economic_Zone_power_station_(J-Power),,
275,Dung Quat TTĐL 3 (Trung tâm khí điện miền Trung - địa điểm Trung tâm Điện lực (TTĐL) -- Dung Quất (Nhà máy điện tuabin khí hỗn hợp Dung Quất III (miền Trung III)),Gas,Planned,750.0,2026.0,Vietnam,"Sembcorp Utilities Vietnam, EVN",,,,,Vietnam,Quảng Ngãi,Bình Sơn,Vietnam Coastal Rivers Quang Nam,15.36306,108.8114,"Actual location unknown, currently sited at locality in link/announcement",5000000,EVN,https://evn.com.vn/d6/news/Cong-bo-dieu-chinh-quy-hoach-dia-diem-Trung-tam-Dien-luc-Dung-Quat-6-12-23209.aspx3,,
276,Duyen Hai 1 (Nhà máy Nhiệt điện Duyên Hải 1),Coal,Operational,1245.0,2015.0,Vietnam,EVN,Vietnam,"VietinBank, BIDV, Vietcombank",China,Dongfeng Group,Vietnam,Trà Vinh,Duyên Hải (Thị xã),Vietnam Mekong Delta,9.58261,106.5231,,1350000,Heritage Foundation,"March 2010; https://www.sourcewatch.org/index.php/Duyen_Hai_Power_Generation_Complex; corroborated by other data set, http://www.cscec.com.cn/zgjz_new/xwzx_new/zqydt_new/201112/2651666.html http://www.ceec.net.cn/art/2018/4/10/art_11019_1613478.html http",https://www.evn.com.vn/d6/news/Tong-giam-doc-EVN-lam-viec-tai-Trung-tam-Dien-luc-Duyen-Hai-0-12-23521.aspx,
